
	{"total":500,"data":[
	
		{
			"displayName" : "NORTH GEORGIA PREMIUM OUTLETS",
			"name" : "281",
			"centerType" : "OUTLET",
			"hideStore" : "false",
			"url" : "",
			"phone" : "7062164322",
			"formattedDistance" : "2,169.4 Miles",
			"line1" : "800 HWY 400 SOUTH STE 830",
			"line2" : "",
			"town" : "DAWSONVILLE",
			"city" : "GA",
			"postalCode" : "30534",
			"country" : "United States",
			"latitude" : "34.3571013",
			"longitude" : "-84.047593",
			
				"openings":
		{
		
						"Sun":"11:00 AM - 7:00 PM",
						"Mon":"10:00 AM - 9:00 PM",
						"Tue":"10:00 AM - 9:00 PM",
						"Wed":"10:00 AM - 9:00 PM",
						"Thu":"10:00 AM - 9:00 PM",
						"Fri":"10:00 AM - 9:00 PM",
						"Sat":"10:00 AM - 9:00 PM"
		},

				"specialOpenings":
		{
		
						"3/9/21":"11:00 AM - 7:00 PM",
						"3/7/21":"12:00 PM - 6:00 PM",
						"3/8/21":"11:00 AM - 7:00 PM",
						"3/10/21":"11:00 AM - 7:00 PM",
						"3/12/21":"10:00 AM - 8:00 PM",
						"3/16/21":"11:00 AM - 7:00 PM",
						"3/14/21":"12:00 PM - 6:00 PM",
						"3/11/21":"11:00 AM - 7:00 PM",
						"3/18/21":"11:00 AM - 7:00 PM",
						"3/19/21":"10:00 AM - 8:00 PM",
						"3/15/21":"11:00 AM - 7:00 PM",
						"3/13/21":"10:00 AM - 8:00 PM",
						"3/22/21":"11:00 AM - 7:00 PM",
						"3/23/21":"11:00 AM - 7:00 PM",
						"3/25/21":"11:00 AM - 7:00 PM",
						"3/24/21":"11:00 AM - 7:00 PM",
						"3/21/21":"12:00 PM - 6:00 PM",
						"3/17/21":"11:00 AM - 7:00 PM",
						"3/20/21":"10:00 AM - 8:00 PM",
						"3/27/21":"10:00 AM - 8:00 PM",
						"3/30/21":"11:00 AM - 7:00 PM",
						"3/26/21":"10:00 AM - 8:00 PM",
						"3/29/21":"11:00 AM - 7:00 PM",
						"4/1/21":"11:00 AM - 7:00 PM",
						"3/28/21":"12:00 PM - 6:00 PM",
						"3/31/21":"11:00 AM - 7:00 PM"
		},

			"image" : ""
		},
		{
			"displayName" : "THE COLLECTION AT FORSYTH",
			"name" : "510",
			"centerType" : "STRIPMALL",
			"hideStore" : "false",
			"url" : "",
			"phone" : "6783416873",
			"formattedDistance" : "2,172 Miles",
			"line1" : "410 PEACHTREE PARKWAY SUITE 226",
			"line2" : "",
			"town" : "CUMMING",
			"city" : "GA",
			"postalCode" : "30041",
			"country" : "United States",
			"latitude" : "34.1527963",
			"longitude" : "-84.1767716",
			
				"openings":
		{
		
						"Sun":"12:00 PM - 6:00 PM",
						"Mon":"10:00 AM - 9:00 PM",
						"Tue":"10:00 AM - 9:00 PM",
						"Wed":"10:00 AM - 9:00 PM",
						"Thu":"10:00 AM - 9:00 PM",
						"Fri":"10:00 AM - 9:00 PM",
						"Sat":"10:00 AM - 9:00 PM"
		},

				"specialOpenings":
		{
		
		},

			"image" : ""
		},
		{
			"displayName" : "WAYNESVILLE COMMONS",
			"name" : "630",
			"centerType" : "STRIPMALL",
			"hideStore" : "false",
			"url" : "",
			"phone" : "8284567024",
			"formattedDistance" : "2,172.2 Miles",
			"line1" : "235 TOWN CENTER LOOP",
			"line2" : "",
			"town" : "WAYNESVILLE",
			"city" : "NC",
			"postalCode" : "28786",
			"country" : "United States",
			"latitude" : "35.46785",
			"longitude" : "-83.0090704",
			
				"openings":
		{
		
						"Sun":"12:00 PM - 6:00 PM",
						"Mon":"10:00 AM - 9:00 PM",
						"Tue":"10:00 AM - 9:00 PM",
						"Wed":"10:00 AM - 9:00 PM",
						"Thu":"10:00 AM - 9:00 PM",
						"Fri":"10:00 AM - 9:00 PM",
						"Sat":"10:00 AM - 9:00 PM"
		},

				"specialOpenings":
		{
		
		},

			"image" : ""
		},
		{
			"displayName" : "CUMMING MARKETPLACE",
			"name" : "423",
			"centerType" : "STRIPMALL",
			"hideStore" : "false",
			"url" : "",
			"phone" : "7708866422",
			"formattedDistance" : "2,172.5 Miles",
			"line1" : "1625 MARKET PLACE BLVD STE A",
			"line2" : "",
			"town" : "CUMMING",
			"city" : "GA",
			"postalCode" : "30041",
			"country" : "United States",
			"latitude" : "34.188844",
			"longitude" : "-84.1334955",
			
				"openings":
		{
		
						"Sun":"11:00 AM - 6:00 PM",
						"Mon":"10:00 AM - 9:00 PM",
						"Tue":"10:00 AM - 9:00 PM",
						"Wed":"10:00 AM - 9:00 PM",
						"Thu":"10:00 AM - 9:00 PM",
						"Fri":"10:00 AM - 9:00 PM",
						"Sat":"10:00 AM - 9:00 PM"
		},

				"specialOpenings":
		{
		
		},

			"image" : ""
		},
		{
			"displayName" : "THE DISTRICT AT HOWELL MILL",
			"name" : "787",
			"centerType" : "STRIPMALL",
			"hideStore" : "false",
			"url" : "",
			"phone" : "4705443028",
			"formattedDistance" : "2,175.8 Miles",
			"line1" : "1801 HOWELL MILL RD STE 260",
			"line2" : "",
			"town" : "ATLANTA",
			"city" : "GA",
			"postalCode" : "30318",
			"country" : "United States",
			"latitude" : "33.8038217",
			"longitude" : "-84.4134579",
			
				"openings":
		{
		
						"Sun":"11:00 AM - 7:00 PM",
						"Mon":"10:00 AM - 9:00 PM",
						"Tue":"10:00 AM - 9:00 PM",
						"Wed":"10:00 AM - 9:00 PM",
						"Thu":"10:00 AM - 9:00 PM",
						"Fri":"10:00 AM - 9:00 PM",
						"Sat":"10:00 AM - 9:00 PM"
		},

				"specialOpenings":
		{
		
		},

			"image" : ""
		}
	]}

