
	{"total":500,"data":[
	
		{
			"displayName" : "STATESBORO CROSSING",
			"name" : "532",
			"centerType" : "STRIPMALL",
			"hideStore" : "false",
			"url" : "",
			"phone" : "9124896117",
			"formattedDistance" : "2,355.3 Miles",
			"line1" : "299 HENRY BLVD. SPACE C-1",
			"line2" : "",
			"town" : "STATESBORO",
			"city" : "GA",
			"postalCode" : "30458",
			"country" : "United States",
			"latitude" : "32.4300385",
			"longitude" : "-81.7594641",
			
				"openings":
		{
		
						"Sun":"12:00 PM - 6:00 PM",
						"Mon":"10:00 AM - 9:00 PM",
						"Tue":"10:00 AM - 9:00 PM",
						"Wed":"10:00 AM - 9:00 PM",
						"Thu":"10:00 AM - 9:00 PM",
						"Fri":"10:00 AM - 9:00 PM",
						"Sat":"10:00 AM - 9:00 PM"
		},

				"specialOpenings":
		{
		
		},

			"image" : ""
		},
		{
			"displayName" : "WHITE OAK VILLAGE",
			"name" : "575",
			"centerType" : "STRIPMALL",
			"hideStore" : "false",
			"url" : "",
			"phone" : "8042225279",
			"formattedDistance" : "2,356.3 Miles",
			"line1" : "4501 S LABURNUM AVENUE  SUITE 550",
			"line2" : "",
			"town" : "RICHMOND",
			"city" : "VA",
			"postalCode" : "23231",
			"country" : "United States",
			"latitude" : "37.528532",
			"longitude" : "-77.3549529",
			
				"openings":
		{
		
						"Sun":"12:00 PM - 6:00 PM",
						"Mon":"10:00 AM - 9:00 PM",
						"Tue":"10:00 AM - 9:00 PM",
						"Wed":"10:00 AM - 9:00 PM",
						"Thu":"10:00 AM - 9:00 PM",
						"Fri":"10:00 AM - 9:00 PM",
						"Sat":"10:00 AM - 9:00 PM"
		},

				"specialOpenings":
		{
		
		},

			"image" : ""
		},
		{
			"displayName" : "CRABTREE VALLEY MALL",
			"name" : "442",
			"centerType" : "MALL",
			"hideStore" : "false",
			"url" : "",
			"phone" : "9197838924",
			"formattedDistance" : "2,357.9 Miles",
			"line1" : "4325 GLENWOOD AVE STE 1053",
			"line2" : "",
			"town" : "RALEIGH",
			"city" : "NC",
			"postalCode" : "27612",
			"country" : "United States",
			"latitude" : "35.8413294",
			"longitude" : "-78.6814003",
			
				"openings":
		{
		
						"Sun":"12:00 PM - 7:00 PM",
						"Mon":"10:00 AM - 9:00 PM",
						"Tue":"10:00 AM - 9:00 PM",
						"Wed":"10:00 AM - 9:00 PM",
						"Thu":"10:00 AM - 9:00 PM",
						"Fri":"10:00 AM - 9:00 PM",
						"Sat":"10:00 AM - 9:00 PM"
		},

				"specialOpenings":
		{
		
		},

			"image" : ""
		},
		{
			"displayName" : "CROSSROADS PLAZA",
			"name" : "134",
			"centerType" : "STRIPMALL",
			"hideStore" : "false",
			"url" : "",
			"phone" : "9192332031",
			"formattedDistance" : "2,358.4 Miles",
			"line1" : "318 CROSSROADS BLVD",
			"line2" : "",
			"town" : "CARY",
			"city" : "NC",
			"postalCode" : "27518",
			"country" : "United States",
			"latitude" : "35.7595688",
			"longitude" : "-78.7386162",
			
				"openings":
		{
		
						"Sun":"12:00 PM - 6:00 PM",
						"Mon":"10:00 AM - 9:00 PM",
						"Tue":"10:00 AM - 9:00 PM",
						"Wed":"10:00 AM - 9:00 PM",
						"Thu":"10:00 AM - 9:00 PM",
						"Fri":"10:00 AM - 9:00 PM",
						"Sat":"10:00 AM - 9:00 PM"
		},

				"specialOpenings":
		{
		
		},

			"image" : ""
		},
		{
			"displayName" : "WAKE FOREST CROSSING II",
			"name" : "699",
			"centerType" : "STRIPMALL",
			"hideStore" : "false",
			"url" : "",
			"phone" : "9195700021",
			"formattedDistance" : "2,359.3 Miles",
			"line1" : "12646 CAPITAL BLVD SUITE 100",
			"line2" : "",
			"town" : "WAKE FOREST",
			"city" : "NC",
			"postalCode" : "27587",
			"country" : "United States",
			"latitude" : "35.9867934",
			"longitude" : "-78.5304117",
			
				"openings":
		{
		
						"Sun":"12:00 PM - 6:00 PM",
						"Mon":"10:00 AM - 9:00 PM",
						"Tue":"10:00 AM - 9:00 PM",
						"Wed":"10:00 AM - 9:00 PM",
						"Thu":"10:00 AM - 9:00 PM",
						"Fri":"10:00 AM - 9:00 PM",
						"Sat":"10:00 AM - 9:00 PM"
		},

				"specialOpenings":
		{
		
		},

			"image" : ""
		}
	]}

