
	{"total":500,"data":[
	
		{
			"displayName" : "WAYNESBORO TOWN CENTER",
			"name" : "508",
			"centerType" : "STRIPMALL",
			"hideStore" : "false",
			"url" : "",
			"phone" : "5409425365",
			"formattedDistance" : "2,263.3 Miles",
			"line1" : "831 TOWN CENTER DR STE F",
			"line2" : "",
			"town" : "WAYNESBORO",
			"city" : "VA",
			"postalCode" : "22980",
			"country" : "United States",
			"latitude" : "38.0551284",
			"longitude" : "-78.9451761",
			
				"openings":
		{
		
						"Sun":"12:00 PM - 6:00 PM",
						"Mon":"10:00 AM - 9:00 PM",
						"Tue":"10:00 AM - 9:00 PM",
						"Wed":"10:00 AM - 9:00 PM",
						"Thu":"10:00 AM - 9:00 PM",
						"Fri":"10:00 AM - 9:00 PM",
						"Sat":"10:00 AM - 9:00 PM"
		},

				"specialOpenings":
		{
		
		},

			"image" : ""
		},
		{
			"displayName" : "WINSLOW BAY COMMONS",
			"name" : "429",
			"centerType" : "STRIPMALL",
			"hideStore" : "false",
			"url" : "",
			"phone" : "7047999912",
			"formattedDistance" : "2,265.7 Miles",
			"line1" : "598-F RIVER HWY",
			"line2" : "",
			"town" : "MOORESVILLE",
			"city" : "NC",
			"postalCode" : "28117",
			"country" : "United States",
			"latitude" : "35.5983439",
			"longitude" : "-80.8737971",
			
				"openings":
		{
		
						"Sun":"12:00 PM - 6:00 PM",
						"Mon":"10:00 AM - 9:00 PM",
						"Tue":"10:00 AM - 9:00 PM",
						"Wed":"10:00 AM - 9:00 PM",
						"Thu":"10:00 AM - 9:00 PM",
						"Fri":"10:00 AM - 9:00 PM",
						"Sat":"10:00 AM - 9:00 PM"
		},

				"specialOpenings":
		{
		
		},

			"image" : ""
		},
		{
			"displayName" : "HAGERSTOWN PREMIUM OUTLETS",
			"name" : "272",
			"centerType" : "OUTLET",
			"hideStore" : "false",
			"url" : "",
			"phone" : "3017915979",
			"formattedDistance" : "2,265.8 Miles",
			"line1" : "735 PREMIUM OUTLETS BLVD",
			"line2" : "",
			"town" : "HAGERSTOWN",
			"city" : "MD",
			"postalCode" : "21740",
			"country" : "United States",
			"latitude" : "39.6096",
			"longitude" : "-77.7336084",
			
				"openings":
		{
		
						"Sun":"12:00 PM - 6:00 PM",
						"Mon":"11:00 AM - 7:00 PM",
						"Tue":"11:00 AM - 7:00 PM",
						"Wed":"11:00 AM - 7:00 PM",
						"Thu":"11:00 AM - 7:00 PM",
						"Fri":"10:00 AM - 8:00 PM",
						"Sat":"10:00 AM - 8:00 PM"
		},

				"specialOpenings":
		{
		
		},

			"image" : ""
		},
		{
			"displayName" : "PIER PARK",
			"name" : "577",
			"centerType" : "STRIPMALL",
			"hideStore" : "false",
			"url" : "",
			"phone" : "8502303051",
			"formattedDistance" : "2,269.5 Miles",
			"line1" : "205 BLUEFISH DRIVE SUITE 115",
			"line2" : "",
			"town" : "PANAMA CITY BEACH",
			"city" : "FL",
			"postalCode" : "32413",
			"country" : "United States",
			"latitude" : "30.2190214",
			"longitude" : "-85.8706722",
			
				"openings":
		{
		
						"Sun":"12:00 PM - 6:00 PM",
						"Mon":"10:00 AM - 8:00 PM",
						"Tue":"10:00 AM - 8:00 PM",
						"Wed":"10:00 AM - 8:00 PM",
						"Thu":"10:00 AM - 8:00 PM",
						"Fri":"10:00 AM - 8:00 PM",
						"Sat":"10:00 AM - 8:00 PM"
		},

				"specialOpenings":
		{
		
						"3/8/21":"10:00 AM - 8:00 PM",
						"3/7/21":"10:00 AM - 8:00 PM",
						"3/9/21":"10:00 AM - 8:00 PM",
						"3/11/21":"10:00 AM - 8:00 PM",
						"3/14/21":"10:00 AM - 8:00 PM",
						"3/10/21":"10:00 AM - 8:00 PM",
						"3/16/21":"10:00 AM - 8:00 PM",
						"3/12/21":"10:00 AM - 8:00 PM",
						"3/15/21":"10:00 AM - 8:00 PM",
						"3/17/21":"10:00 AM - 8:00 PM",
						"3/13/21":"10:00 AM - 8:00 PM",
						"3/20/21":"10:00 AM - 8:00 PM",
						"3/18/21":"10:00 AM - 8:00 PM",
						"3/23/21":"10:00 AM - 8:00 PM",
						"3/21/21":"10:00 AM - 8:00 PM",
						"3/25/21":"10:00 AM - 8:00 PM",
						"3/24/21":"10:00 AM - 8:00 PM",
						"3/22/21":"10:00 AM - 8:00 PM",
						"3/19/21":"10:00 AM - 8:00 PM",
						"3/27/21":"10:00 AM - 8:00 PM",
						"3/26/21":"10:00 AM - 8:00 PM"
		},

			"image" : ""
		},
		{
			"displayName" : "VILLAGE OF MARTINSVILLE",
			"name" : "79",
			"centerType" : "MALL",
			"hideStore" : "false",
			"url" : "",
			"phone" : "2767900332",
			"formattedDistance" : "2,269.7 Miles",
			"line1" : "240 COMMONWEALTH BLVD W SPC 310",
			"line2" : "",
			"town" : "MARTINSVILLE",
			"city" : "VA",
			"postalCode" : "24112",
			"country" : "United States",
			"latitude" : "36.6980129",
			"longitude" : "-79.8780322",
			
				"openings":
		{
		
						"Sun":"12:00 PM - 6:00 PM",
						"Mon":"10:00 AM - 9:00 PM",
						"Tue":"10:00 AM - 9:00 PM",
						"Wed":"10:00 AM - 9:00 PM",
						"Thu":"10:00 AM - 9:00 PM",
						"Fri":"10:00 AM - 9:00 PM",
						"Sat":"10:00 AM - 9:00 PM"
		},

				"specialOpenings":
		{
		
		},

			"image" : ""
		}
	]}

