
	{"total":500,"data":[
	
		{
			"displayName" : "NORTH AUGUSTA PLAZA",
			"name" : "718",
			"centerType" : "STRIPMALL",
			"hideStore" : "false",
			"url" : "",
			"phone" : "8032795402",
			"formattedDistance" : "2,300.7 Miles",
			"line1" : "362 E. MARTINTOWN RD",
			"line2" : "",
			"town" : "NORTH AUGUSTA",
			"city" : "SC",
			"postalCode" : "29841",
			"country" : "United States",
			"latitude" : "33.4973862",
			"longitude" : "-81.9607919",
			
				"openings":
		{
		
						"Sun":"12:00 PM - 6:00 PM",
						"Mon":"10:00 AM - 9:00 PM",
						"Tue":"10:00 AM - 9:00 PM",
						"Wed":"10:00 AM - 9:00 PM",
						"Thu":"10:00 AM - 9:00 PM",
						"Fri":"10:00 AM - 9:00 PM",
						"Sat":"10:00 AM - 9:00 PM"
		},

				"specialOpenings":
		{
		
		},

			"image" : ""
		},
		{
			"displayName" : "POPLIN PLACE",
			"name" : "490",
			"centerType" : "STRIPMALL",
			"hideStore" : "false",
			"url" : "",
			"phone" : "7042898232",
			"formattedDistance" : "2,301.9 Miles",
			"line1" : "3029 W HIGHWAY 74",
			"line2" : "",
			"town" : "MONROE",
			"city" : "NC",
			"postalCode" : "28110",
			"country" : "United States",
			"latitude" : "35.0213418",
			"longitude" : "-80.5827706",
			
				"openings":
		{
		
						"Sun":"12:00 PM - 6:00 PM",
						"Mon":"10:00 AM - 9:00 PM",
						"Tue":"10:00 AM - 9:00 PM",
						"Wed":"10:00 AM - 9:00 PM",
						"Thu":"10:00 AM - 9:00 PM",
						"Fri":"10:00 AM - 9:00 PM",
						"Sat":"10:00 AM - 9:00 PM"
		},

				"specialOpenings":
		{
		
		},

			"image" : ""
		},
		{
			"displayName" : "STONE MOUNTAIN SQUARE",
			"name" : "117",
			"centerType" : "STRIPMALL",
			"hideStore" : "false",
			"url" : "",
			"phone" : "7704986426",
			"formattedDistance" : "2,303.4 Miles",
			"line1" : "5370 HIGHWAY 78 SUITE 100",
			"line2" : "",
			"town" : "STONE MOUNTAIN",
			"city" : "GA",
			"postalCode" : "30087",
			"country" : "United States",
			"latitude" : "32.878297",
			"longitude" : "-82.4742666",
			
				"openings":
		{
		
						"Sun":"12:00 PM - 6:00 PM",
						"Mon":"10:00 AM - 9:00 PM",
						"Tue":"10:00 AM - 9:00 PM",
						"Wed":"10:00 AM - 9:00 PM",
						"Thu":"10:00 AM - 9:00 PM",
						"Fri":"10:00 AM - 9:00 PM",
						"Sat":"10:00 AM - 9:00 PM"
		},

				"specialOpenings":
		{
		
		},

			"image" : ""
		},
		{
			"displayName" : "OLIVE PLACE SHOPPING CENTER",
			"name" : "700",
			"centerType" : "STRIPMALL",
			"hideStore" : "false",
			"url" : "",
			"phone" : "7049836158",
			"formattedDistance" : "2,308.1 Miles",
			"line1" : "780C LEONARD AVE",
			"line2" : "",
			"town" : "ALBEMARLE",
			"city" : "NC",
			"postalCode" : "28001",
			"country" : "United States",
			"latitude" : "35.3395796",
			"longitude" : "-80.1775709",
			
				"openings":
		{
		
						"Sun":"12:00 PM - 6:00 PM",
						"Mon":"10:00 AM - 9:00 PM",
						"Tue":"10:00 AM - 9:00 PM",
						"Wed":"10:00 AM - 9:00 PM",
						"Thu":"10:00 AM - 9:00 PM",
						"Fri":"10:00 AM - 9:00 PM",
						"Sat":"10:00 AM - 9:00 PM"
		},

				"specialOpenings":
		{
		
		},

			"image" : ""
		},
		{
			"displayName" : "UNIVERSITY COMMONS",
			"name" : "468",
			"centerType" : "STRIPMALL",
			"hideStore" : "false",
			"url" : "",
			"phone" : "3365381698",
			"formattedDistance" : "2,310.2 Miles",
			"line1" : "1451 UNIVERSITY DR STE B",
			"line2" : "",
			"town" : "BURLINGTON",
			"city" : "NC",
			"postalCode" : "27215",
			"country" : "United States",
			"latitude" : "36.0674792",
			"longitude" : "-79.5225241",
			
				"openings":
		{
		
						"Sun":"12:00 PM - 6:00 PM",
						"Mon":"10:00 AM - 9:00 PM",
						"Tue":"10:00 AM - 9:00 PM",
						"Wed":"10:00 AM - 9:00 PM",
						"Thu":"10:00 AM - 9:00 PM",
						"Fri":"10:00 AM - 9:00 PM",
						"Sat":"10:00 AM - 9:00 PM"
		},

				"specialOpenings":
		{
		
		},

			"image" : ""
		}
	]}

