
	{"total":500,"data":[
	
		{
			"displayName" : "THE PINNACLE",
			"name" : "662",
			"centerType" : "STRIPMALL",
			"hideStore" : "false",
			"url" : "",
			"phone" : "4236520580",
			"formattedDistance" : "2,163.2 Miles",
			"line1" : "554 PINNACLE PARKWAY UNIT 733",
			"line2" : "",
			"town" : "BRISTOL",
			"city" : "TN",
			"postalCode" : "37620",
			"country" : "United States",
			"latitude" : "36.5952009",
			"longitude" : "-82.2562502",
			
				"openings":
		{
		
						"Sun":"12:00 PM - 6:00 PM",
						"Mon":"10:00 AM - 9:00 PM",
						"Tue":"10:00 AM - 9:00 PM",
						"Wed":"10:00 AM - 9:00 PM",
						"Thu":"10:00 AM - 9:00 PM",
						"Fri":"10:00 AM - 9:00 PM",
						"Sat":"10:00 AM - 9:00 PM"
		},

				"specialOpenings":
		{
		
						"3/12/21":"10:00 AM - 8:00 PM",
						"3/8/21":"10:00 AM - 8:00 PM",
						"3/10/21":"10:00 AM - 8:00 PM",
						"3/11/21":"10:00 AM - 8:00 PM",
						"3/9/21":"10:00 AM - 8:00 PM",
						"3/13/21":"10:00 AM - 8:00 PM"
		},

			"image" : ""
		},
		{
			"displayName" : "EAST WEST CROSSING",
			"name" : "115",
			"centerType" : "STRIPMALL",
			"hideStore" : "false",
			"url" : "",
			"phone" : "7709443497",
			"formattedDistance" : "2,165 Miles",
			"line1" : "1825 EAST WEST CONNECTOR SW",
			"line2" : "",
			"town" : "AUSTELL",
			"city" : "GA",
			"postalCode" : "30106",
			"country" : "United States",
			"latitude" : "33.8526021",
			"longitude" : "-84.6068629",
			
				"openings":
		{
		
						"Sun":"12:00 PM - 6:00 PM",
						"Mon":"10:00 AM - 9:00 PM",
						"Tue":"10:00 AM - 9:00 PM",
						"Wed":"10:00 AM - 9:00 PM",
						"Thu":"10:00 AM - 9:00 PM",
						"Fri":"10:00 AM - 9:00 PM",
						"Sat":"10:00 AM - 9:00 PM"
		},

				"specialOpenings":
		{
		
		},

			"image" : ""
		},
		{
			"displayName" : "ROSWELL CORNERS SHOPPING CENTER",
			"name" : "421",
			"centerType" : "STRIPMALL",
			"hideStore" : "false",
			"url" : "",
			"phone" : "6787959683",
			"formattedDistance" : "2,165.7 Miles",
			"line1" : "1125 WOODSTOCK RD STE 530 BLDG D",
			"line2" : "",
			"town" : "ROSWELL",
			"city" : "GA",
			"postalCode" : "30075",
			"country" : "United States",
			"latitude" : "34.0638864",
			"longitude" : "-84.3956541",
			
				"openings":
		{
		
						"Sun":"11:00 AM - 7:00 PM",
						"Mon":"10:00 AM - 9:00 PM",
						"Tue":"10:00 AM - 9:00 PM",
						"Wed":"10:00 AM - 9:00 PM",
						"Thu":"10:00 AM - 9:00 PM",
						"Fri":"10:00 AM - 9:00 PM",
						"Sat":"10:00 AM - 9:00 PM"
		},

				"specialOpenings":
		{
		
		},

			"image" : ""
		},
		{
			"displayName" : "THE MALL AT JOHNSON CITY",
			"name" : "17",
			"centerType" : "MALL",
			"hideStore" : "false",
			"url" : "",
			"phone" : "4238549145",
			"formattedDistance" : "2,167.3 Miles",
			"line1" : "2011 N. ROAN STREET SPACE D3",
			"line2" : "",
			"town" : "JOHNSON CITY",
			"city" : "TN",
			"postalCode" : "37601",
			"country" : "United States",
			"latitude" : "36.3387712",
			"longitude" : "-82.3785384",
			
				"openings":
		{
		
						"Sun":"12:00 PM - 6:00 PM",
						"Mon":"10:00 AM - 9:00 PM",
						"Tue":"10:00 AM - 9:00 PM",
						"Wed":"10:00 AM - 9:00 PM",
						"Thu":"10:00 AM - 9:00 PM",
						"Fri":"10:00 AM - 9:00 PM",
						"Sat":"10:00 AM - 9:00 PM"
		},

				"specialOpenings":
		{
		
						"3/13/21":"11:00 AM - 7:00 PM",
						"3/10/21":"11:00 AM - 7:00 PM",
						"3/9/21":"11:00 AM - 7:00 PM",
						"3/11/21":"11:00 AM - 7:00 PM",
						"3/8/21":"11:00 AM - 7:00 PM",
						"3/12/21":"11:00 AM - 7:00 PM",
						"3/18/21":"11:00 AM - 7:00 PM",
						"3/15/21":"11:00 AM - 7:00 PM",
						"3/17/21":"11:00 AM - 7:00 PM",
						"3/19/21":"11:00 AM - 7:00 PM",
						"3/22/21":"11:00 AM - 7:00 PM",
						"3/25/21":"11:00 AM - 7:00 PM",
						"3/16/21":"11:00 AM - 7:00 PM",
						"3/24/21":"11:00 AM - 7:00 PM",
						"3/26/21":"11:00 AM - 7:00 PM",
						"3/23/21":"11:00 AM - 7:00 PM",
						"3/29/21":"11:00 AM - 7:00 PM",
						"3/31/21":"11:00 AM - 7:00 PM",
						"3/30/21":"11:00 AM - 7:00 PM",
						"3/20/21":"11:00 AM - 7:00 PM",
						"3/27/21":"11:00 AM - 7:00 PM"
		},

			"image" : ""
		},
		{
			"displayName" : "PROVIDENCE SQUARE",
			"name" : "40",
			"centerType" : "STRIPMALL",
			"hideStore" : "false",
			"url" : "",
			"phone" : "7709773223",
			"formattedDistance" : "2,167.5 Miles",
			"line1" : "4101 ROSWELL RD STE 402",
			"line2" : "",
			"town" : "MARIETTA",
			"city" : "GA",
			"postalCode" : "30062",
			"country" : "United States",
			"latitude" : "33.9809684",
			"longitude" : "-84.4336778",
			
				"openings":
		{
		
						"Sun":"12:00 PM - 6:00 PM",
						"Mon":"10:00 AM - 9:00 PM",
						"Tue":"10:00 AM - 9:00 PM",
						"Wed":"10:00 AM - 9:00 PM",
						"Thu":"10:00 AM - 9:00 PM",
						"Fri":"10:00 AM - 9:00 PM",
						"Sat":"10:00 AM - 9:00 PM"
		},

				"specialOpenings":
		{
		
		},

			"image" : ""
		}
	]}

