
	{"total":500,"data":[
	
		{
			"displayName" : "BUTLER PLAZA WEST",
			"name" : "185",
			"centerType" : "STRIPMALL",
			"hideStore" : "false",
			"url" : "",
			"phone" : "3523774813",
			"formattedDistance" : "2,452.2 Miles",
			"line1" : "3958 S W ARCHER  ROAD",
			"line2" : "",
			"town" : "GAINESVILLE",
			"city" : "FL",
			"postalCode" : "32608",
			"country" : "United States",
			"latitude" : "29.6214867",
			"longitude" : "-82.3833807",
			
				"openings":
		{
		
						"Sun":"12:00 PM - 6:00 PM",
						"Mon":"10:00 AM - 9:00 PM",
						"Tue":"10:00 AM - 9:00 PM",
						"Wed":"10:00 AM - 9:00 PM",
						"Thu":"10:00 AM - 9:00 PM",
						"Fri":"10:00 AM - 9:00 PM",
						"Sat":"10:00 AM - 9:00 PM"
		},

				"specialOpenings":
		{
		
		},

			"image" : ""
		},
		{
			"displayName" : "ORANGE PARK MALL",
			"name" : "284",
			"centerType" : "MALL",
			"hideStore" : "false",
			"url" : "",
			"phone" : "9042645005",
			"formattedDistance" : "2,455.5 Miles",
			"line1" : "1910 WELLS ROAD SP J-05",
			"line2" : "",
			"town" : "ORANGE PARK",
			"city" : "FL",
			"postalCode" : "32073",
			"country" : "United States",
			"latitude" : "30.1831879",
			"longitude" : "-81.7387891",
			
				"openings":
		{
		
						"Sun":"12:00 PM - 6:00 PM",
						"Mon":"10:00 AM - 9:00 PM",
						"Tue":"10:00 AM - 9:00 PM",
						"Wed":"10:00 AM - 9:00 PM",
						"Thu":"10:00 AM - 9:00 PM",
						"Fri":"10:00 AM - 9:00 PM",
						"Sat":"10:00 AM - 9:00 PM"
		},

				"specialOpenings":
		{
		
						"3/8/21":"11:00 AM - 7:00 PM",
						"3/10/21":"11:00 AM - 7:00 PM",
						"3/9/21":"11:00 AM - 7:00 PM",
						"3/18/21":"11:00 AM - 7:00 PM",
						"3/13/21":"11:00 AM - 7:00 PM",
						"3/20/21":"11:00 AM - 7:00 PM",
						"3/15/21":"11:00 AM - 7:00 PM",
						"3/19/21":"11:00 AM - 7:00 PM",
						"3/16/21":"11:00 AM - 7:00 PM",
						"3/24/21":"11:00 AM - 7:00 PM",
						"3/23/21":"11:00 AM - 7:00 PM",
						"3/22/21":"11:00 AM - 7:00 PM",
						"3/25/21":"11:00 AM - 7:00 PM",
						"3/12/21":"11:00 AM - 7:00 PM",
						"3/17/21":"11:00 AM - 7:00 PM",
						"3/11/21":"11:00 AM - 7:00 PM",
						"3/27/21":"11:00 AM - 7:00 PM",
						"3/26/21":"11:00 AM - 7:00 PM"
		},

			"image" : ""
		},
		{
			"displayName" : " WESTBROOK OUTLETS",
			"name" : "678",
			"centerType" : "OUTLET",
			"hideStore" : "false",
			"url" : "",
			"phone" : "8603990072",
			"formattedDistance" : "2,456.6 Miles",
			"line1" : "314 FLAT ROCK PLACE",
			"line2" : "",
			"town" : "WESTBROOK",
			"city" : "CT",
			"postalCode" : "06498",
			"country" : "United States",
			"latitude" : "41.2890701",
			"longitude" : "-72.4293552",
			
				"openings":
		{
		
						"Sun":"10:00 AM - 6:00 PM",
						"Mon":"10:00 AM - 6:00 PM",
						"Tue":"10:00 AM - 6:00 PM",
						"Wed":"10:00 AM - 6:00 PM",
						"Thu":"10:00 AM - 6:00 PM",
						"Fri":"10:00 AM - 6:00 PM",
						"Sat":"10:00 AM - 6:00 PM"
		},

				"specialOpenings":
		{
		
		},

			"image" : ""
		},
		{
			"displayName" : "INDEPENDENCE MALL",
			"name" : "223",
			"centerType" : "MALL",
			"hideStore" : "false",
			"url" : "",
			"phone" : "9103958460",
			"formattedDistance" : "2,458.2 Miles",
			"line1" : "3500 OLEANDER DR STE 6E AND 7E",
			"line2" : "",
			"town" : "WILMINGTON",
			"city" : "NC",
			"postalCode" : "28403",
			"country" : "United States",
			"latitude" : "34.2145288",
			"longitude" : "-77.9067984",
			
				"openings":
		{
		
						"Sun":"1:00 PM - 6:00 PM",
						"Mon":"10:00 AM - 9:00 PM",
						"Tue":"10:00 AM - 9:00 PM",
						"Wed":"10:00 AM - 9:00 PM",
						"Thu":"10:00 AM - 9:00 PM",
						"Fri":"10:00 AM - 9:00 PM",
						"Sat":"10:00 AM - 9:00 PM"
		},

				"specialOpenings":
		{
		
		},

			"image" : ""
		},
		{
			"displayName" : "GATEWAY PLAZA",
			"name" : "722",
			"centerType" : "STRIPMALL",
			"hideStore" : "false",
			"url" : "",
			"phone" : "9109370059",
			"formattedDistance" : "2,458.4 Miles",
			"line1" : "1112 HAMPTON INN WAY STE 100",
			"line2" : "",
			"town" : "JACKSONVILLE",
			"city" : "NC",
			"postalCode" : "28546",
			"country" : "United States",
			"latitude" : "34.7876071",
			"longitude" : "-77.4061383",
			
				"openings":
		{
		
						"Sun":"12:00 PM - 6:00 PM",
						"Mon":"10:00 AM - 9:00 PM",
						"Tue":"10:00 AM - 9:00 PM",
						"Wed":"10:00 AM - 9:00 PM",
						"Thu":"10:00 AM - 9:00 PM",
						"Fri":"10:00 AM - 9:00 PM",
						"Sat":"10:00 AM - 9:00 PM"
		},

				"specialOpenings":
		{
		
						"4/4/21":"12:00 PM - 12:00 PM"
		},

			"image" : ""
		}
	]}

