
	{"total":500,"data":[
	
		{
			"displayName" : "PALMER PARK MALL",
			"name" : "654",
			"centerType" : "MALL",
			"hideStore" : "false",
			"url" : "",
			"phone" : "6109233627",
			"formattedDistance" : "2,344.9 Miles",
			"line1" : "148 PALMER PARK MALL",
			"line2" : "",
			"town" : "EASTON",
			"city" : "PA",
			"postalCode" : "18045",
			"country" : "United States",
			"latitude" : "40.6963453",
			"longitude" : "-75.2590589",
			
				"openings":
		{
		
						"Sun":"11:00 AM - 6:00 PM",
						"Mon":"10:00 AM - 8:00 PM",
						"Tue":"10:00 AM - 8:00 PM",
						"Wed":"10:00 AM - 8:00 PM",
						"Thu":"10:00 AM - 8:00 PM",
						"Fri":"10:00 AM - 8:00 PM",
						"Sat":"10:00 AM - 8:00 PM"
		},

				"specialOpenings":
		{
		
		},

			"image" : ""
		},
		{
			"displayName" : "COMMONWEALTH CENTRE",
			"name" : "393",
			"centerType" : "STRIPMALL",
			"hideStore" : "false",
			"url" : "",
			"phone" : "8047445180",
			"formattedDistance" : "2,347.5 Miles",
			"line1" : "4808 COMMONWEALTH CENTRE PKWY",
			"line2" : "",
			"town" : "MIDLOTHIAN",
			"city" : "VA",
			"postalCode" : "23112",
			"country" : "United States",
			"latitude" : "37.4175132",
			"longitude" : "-77.6319203",
			
				"openings":
		{
		
						"Sun":"12:00 PM - 6:00 PM",
						"Mon":"10:00 AM - 9:00 PM",
						"Tue":"10:00 AM - 9:00 PM",
						"Wed":"10:00 AM - 9:00 PM",
						"Thu":"10:00 AM - 9:00 PM",
						"Fri":"10:00 AM - 9:00 PM",
						"Sat":"10:00 AM - 9:00 PM"
		},

				"specialOpenings":
		{
		
		},

			"image" : ""
		},
		{
			"displayName" : "SHOPS @ WILLOW LAWN",
			"name" : "129",
			"centerType" : "STRIPMALL",
			"hideStore" : "false",
			"url" : "",
			"phone" : "8042887824",
			"formattedDistance" : "2,347.7 Miles",
			"line1" : "1601 WILLOW LAWN DR STE 103B",
			"line2" : "",
			"town" : "RICHMOND",
			"city" : "VA",
			"postalCode" : "23230",
			"country" : "United States",
			"latitude" : "37.5822579",
			"longitude" : "-77.4981782",
			
				"openings":
		{
		
						"Sun":"12:30 PM - 5:30 PM",
						"Mon":"10:00 AM - 9:00 PM",
						"Tue":"10:00 AM - 9:00 PM",
						"Wed":"10:00 AM - 9:00 PM",
						"Thu":"10:00 AM - 9:00 PM",
						"Fri":"10:00 AM - 9:00 PM",
						"Sat":"10:00 AM - 9:00 PM"
		},

				"specialOpenings":
		{
		
		},

			"image" : ""
		},
		{
			"displayName" : "CROSSGATES MALL",
			"name" : "3110",
			"centerType" : "MALL",
			"hideStore" : "true",
			"url" : "",
			"phone" : "5184526028",
			"formattedDistance" : "2,348 Miles",
			"line1" : "1 CROSSGATES MALL RD L210",
			"line2" : "",
			"town" : "ALBANY",
			"city" : "NY",
			"postalCode" : "12203",
			"country" : "United States",
			"latitude" : "42.6898983",
			"longitude" : "-73.8522306",
			
				"openings":
		{
		
						"Sun":"11:00 AM - 6:00 PM",
						"Mon":"10:00 AM - 9:30 PM",
						"Tue":"10:00 AM - 9:30 PM",
						"Wed":"10:00 AM - 9:30 PM",
						"Thu":"10:00 AM - 9:30 PM",
						"Fri":"10:00 AM - 9:30 PM",
						"Sat":"10:00 AM - 9:30 PM"
		},

				"specialOpenings":
		{
		
						"3/10/21":"11:00 AM - 7:00 PM",
						"3/8/21":"11:00 AM - 7:00 PM",
						"3/12/21":"11:00 AM - 7:00 PM",
						"3/14/21":"11:00 AM - 6:00 PM",
						"3/11/21":"11:00 AM - 7:00 PM",
						"3/15/21":"11:00 AM - 7:00 PM",
						"3/7/21":"11:00 AM - 6:00 PM",
						"3/13/21":"11:00 AM - 7:00 PM",
						"3/9/21":"11:00 AM - 7:00 PM",
						"3/18/21":"11:00 AM - 7:00 PM",
						"3/20/21":"11:00 AM - 7:00 PM",
						"3/17/21":"11:00 AM - 7:00 PM",
						"3/19/21":"11:00 AM - 7:00 PM",
						"3/22/21":"11:00 AM - 7:00 PM",
						"3/24/21":"11:00 AM - 7:00 PM",
						"3/23/21":"11:00 AM - 7:00 PM",
						"3/21/21":"11:00 AM - 6:00 PM",
						"3/16/21":"11:00 AM - 7:00 PM",
						"3/26/21":"11:00 AM - 7:00 PM",
						"3/27/21":"11:00 AM - 7:00 PM",
						"3/30/21":"11:00 AM - 7:00 PM",
						"3/28/21":"11:00 AM - 6:00 PM",
						"3/29/21":"11:00 AM - 7:00 PM",
						"3/25/21":"11:00 AM - 7:00 PM",
						"3/31/21":"11:00 AM - 7:00 PM"
		},

			"image" : ""
		},
		{
			"displayName" : "FAIRFIELD PLACE",
			"name" : "639",
			"centerType" : "STRIPMALL",
			"hideStore" : "false",
			"url" : "",
			"phone" : "6105248284",
			"formattedDistance" : "2,349.4 Miles",
			"line1" : "133 E SWEDESFORD RD",
			"line2" : "",
			"town" : "EXTON",
			"city" : "PA",
			"postalCode" : "19341",
			"country" : "United States",
			"latitude" : "40.035721",
			"longitude" : "-75.6279691",
			
				"openings":
		{
		
						"Sun":"11:00 AM - 6:00 PM",
						"Mon":"10:00 AM - 9:00 PM",
						"Tue":"10:00 AM - 9:00 PM",
						"Wed":"10:00 AM - 9:00 PM",
						"Thu":"10:00 AM - 9:00 PM",
						"Fri":"10:00 AM - 9:00 PM",
						"Sat":"10:00 AM - 9:00 PM"
		},

				"specialOpenings":
		{
		
		},

			"image" : ""
		}
	]}

