
	{"total":500,"data":[
	
		{
			"displayName" : "VALLEY VIEW STATION",
			"name" : "14",
			"centerType" : "STRIPMALL",
			"hideStore" : "false",
			"url" : "",
			"phone" : "5403665174",
			"formattedDistance" : "2,243.6 Miles",
			"line1" : "4744 VALLEY VIEW BLVD",
			"line2" : "",
			"town" : "ROANOKE",
			"city" : "VA",
			"postalCode" : "24012",
			"country" : "United States",
			"latitude" : "37.3012726",
			"longitude" : "-79.9559484",
			
				"openings":
		{
		
						"Sun":"12:00 PM - 6:00 PM",
						"Mon":"10:00 AM - 9:00 PM",
						"Tue":"10:00 AM - 9:00 PM",
						"Wed":"10:00 AM - 9:00 PM",
						"Thu":"10:00 AM - 9:00 PM",
						"Fri":"10:00 AM - 9:00 PM",
						"Sat":"10:00 AM - 9:00 PM"
		},

				"specialOpenings":
		{
		
		},

			"image" : ""
		},
		{
			"displayName" : "HILLCREST MARKET PLACE",
			"name" : "485",
			"centerType" : "STRIPMALL",
			"hideStore" : "false",
			"url" : "",
			"phone" : "8645970722",
			"formattedDistance" : "2,243.8 Miles",
			"line1" : "1985 E MAIN ST STE 1",
			"line2" : "",
			"town" : "SPARTANBURG",
			"city" : "SC",
			"postalCode" : "29307",
			"country" : "United States",
			"latitude" : "34.9693315",
			"longitude" : "-81.8870072",
			
				"openings":
		{
		
						"Sun":"12:00 PM - 6:00 PM",
						"Mon":"11:00 AM - 7:00 PM",
						"Tue":"11:00 AM - 7:00 PM",
						"Wed":"11:00 AM - 7:00 PM",
						"Thu":"11:00 AM - 7:00 PM",
						"Fri":"11:00 AM - 7:00 PM",
						"Sat":"11:00 AM - 7:00 PM"
		},

				"specialOpenings":
		{
		
		},

			"image" : ""
		},
		{
			"displayName" : "HUNTING HILLS PLAZA",
			"name" : "66",
			"centerType" : "STRIPMALL",
			"hideStore" : "false",
			"url" : "",
			"phone" : "5407744827",
			"formattedDistance" : "2,246 Miles",
			"line1" : "4210 FRANKLIN RD SW SUITE C",
			"line2" : "",
			"town" : "ROANOKE",
			"city" : "VA",
			"postalCode" : "24014",
			"country" : "United States",
			"latitude" : "37.2241698",
			"longitude" : "-79.9656072",
			
				"openings":
		{
		
						"Sun":"12:00 PM - 6:00 PM",
						"Mon":"10:00 AM - 9:00 PM",
						"Tue":"10:00 AM - 9:00 PM",
						"Wed":"10:00 AM - 9:00 PM",
						"Thu":"10:00 AM - 9:00 PM",
						"Fri":"10:00 AM - 9:00 PM",
						"Sat":"10:00 AM - 9:00 PM"
		},

				"specialOpenings":
		{
		
		},

			"image" : ""
		},
		{
			"displayName" : "GAFFNEY PREMIUM OUTLETS",
			"name" : "275",
			"centerType" : "OUTLET",
			"hideStore" : "false",
			"url" : "",
			"phone" : "8644881607",
			"formattedDistance" : "2,247.3 Miles",
			"line1" : "1 FACTORY SHOPS BLVD STE 425",
			"line2" : "",
			"town" : "GAFFNEY",
			"city" : "SC",
			"postalCode" : "29341",
			"country" : "United States",
			"latitude" : "35.0819782",
			"longitude" : "-81.7121115",
			
				"openings":
		{
		
						"Sun":"12:00 PM - 6:00 PM",
						"Mon":"11:00 AM - 7:00 PM",
						"Tue":"11:00 AM - 7:00 PM",
						"Wed":"11:00 AM - 7:00 PM",
						"Thu":"11:00 AM - 7:00 PM",
						"Fri":"10:00 AM - 8:00 PM",
						"Sat":"10:00 AM - 8:00 PM"
		},

				"specialOpenings":
		{
		
		},

			"image" : ""
		},
		{
			"displayName" : "MERCER CROSSING",
			"name" : "826",
			"centerType" : "STRIPMALL",
			"hideStore" : "false",
			"url" : "",
			"phone" : "4784742047",
			"formattedDistance" : "2,250.4 Miles",
			"line1" : "3555 MERCER UNIVERISTY DR STE 105-5",
			"line2" : "",
			"town" : "MACON",
			"city" : "GA",
			"postalCode" : "31204",
			"country" : "United States",
			"latitude" : "32.8220596",
			"longitude" : "-83.6930694",
			
				"openings":
		{
		
						"Sun":"12:00 PM - 6:00 PM",
						"Mon":"10:00 AM - 9:00 PM",
						"Tue":"10:00 AM - 9:00 PM",
						"Wed":"10:00 AM - 9:00 PM",
						"Thu":"10:00 AM - 9:00 PM",
						"Fri":"10:00 AM - 9:00 PM",
						"Sat":"10:00 AM - 9:00 PM"
		},

				"specialOpenings":
		{
		
		},

			"image" : ""
		}
	]}

