
	{"total":500,"data":[
	
		{
			"displayName" : "BEND FACTORY STORES",
			"name" : "693",
			"centerType" : "OUTLET",
			"hideStore" : "false",
			"url" : "",
			"phone" : "5413822697",
			"formattedDistance" : "253.8 Miles",
			"line1" : "61334 S. HWY 97 STE 300",
			"line2" : "",
			"town" : "BEND",
			"city" : "OR",
			"postalCode" : "97702",
			"country" : "United States",
			"latitude" : "44.0266258",
			"longitude" : "-121.3122693",
			
				"openings":
		{
		
						"Sun":"11:00 AM - 5:00 PM",
						"Mon":"10:00 AM - 6:00 PM",
						"Tue":"10:00 AM - 6:00 PM",
						"Wed":"10:00 AM - 6:00 PM",
						"Thu":"10:00 AM - 6:00 PM",
						"Fri":"10:00 AM - 6:00 PM",
						"Sat":"10:00 AM - 6:00 PM"
		},

				"specialOpenings":
		{
		
		},

			"image" : ""
		},
		{
			"displayName" : "LEGENDS AT SPARKS MARINA",
			"name" : "3077",
			"centerType" : "OUTLET",
			"hideStore" : "true",
			"url" : "",
			"phone" : "7753315705",
			"formattedDistance" : "574.6 Miles",
			"line1" : "1420 SCHEELS DRIVE STE 120",
			"line2" : "",
			"town" : "SPARKS",
			"city" : "NV",
			"postalCode" : "89434",
			"country" : "United States",
			"latitude" : "39.5321738",
			"longitude" : "-119.7193567",
			
				"openings":
		{
		
						"Sun":"11:00 AM - 6:00 PM",
						"Mon":"10:00 AM - 9:00 PM",
						"Tue":"10:00 AM - 9:00 PM",
						"Wed":"10:00 AM - 9:00 PM",
						"Thu":"10:00 AM - 9:00 PM",
						"Fri":"10:00 AM - 9:00 PM",
						"Sat":"10:00 AM - 9:00 PM"
		},

				"specialOpenings":
		{
		
		},

			"image" : ""
		},
		{
			"displayName" : "MARKETPLACE @ BIRDCAGE",
			"name" : "3059",
			"centerType" : "STRIPMALL",
			"hideStore" : "true",
			"url" : "",
			"phone" : "9169611083",
			"formattedDistance" : "621 Miles",
			"line1" : "6100 BIRDCAGE CENTRE LN STE 121",
			"line2" : "",
			"town" : "CITRUS HEIGHTS",
			"city" : "CA",
			"postalCode" : "95610",
			"country" : "United States",
			"latitude" : "38.6746418",
			"longitude" : "-121.2738631",
			
				"openings":
		{
		
						"Sun":"10:00 AM - 7:00 PM",
						"Mon":"10:00 AM - 9:00 PM",
						"Tue":"10:00 AM - 9:00 PM",
						"Wed":"10:00 AM - 9:00 PM",
						"Thu":"10:00 AM - 9:00 PM",
						"Fri":"10:00 AM - 9:00 PM",
						"Sat":"10:00 AM - 9:00 PM"
		},

				"specialOpenings":
		{
		
		},

			"image" : ""
		},
		{
			"displayName" : "THE PROMENADE AT NATOMAS",
			"name" : "3060",
			"centerType" : "STRIPMALL",
			"hideStore" : "true",
			"url" : "",
			"phone" : "9164190021",
			"formattedDistance" : "622.5 Miles",
			"line1" : "3651 N FREEWAY BLVD",
			"line2" : "",
			"town" : "SACRAMENTO",
			"city" : "CA",
			"postalCode" : "95834",
			"country" : "United States",
			"latitude" : "38.6411778",
			"longitude" : "-121.4961028",
			
				"openings":
		{
		
						"Sun":"10:00 AM - 7:00 PM",
						"Mon":"10:00 AM - 9:00 PM",
						"Tue":"10:00 AM - 9:00 PM",
						"Wed":"10:00 AM - 9:00 PM",
						"Thu":"10:00 AM - 9:00 PM",
						"Fri":"10:00 AM - 9:00 PM",
						"Sat":"10:00 AM - 9:00 PM"
		},

				"specialOpenings":
		{
		
		},

			"image" : ""
		},
		{
			"displayName" : "FOLSOM PREMIUM OUTLETS",
			"name" : "720",
			"centerType" : "OUTLET",
			"hideStore" : "false",
			"url" : "",
			"phone" : "9169854431",
			"formattedDistance" : "623.5 Miles",
			"line1" : "13000 FOLSOM BLVD STE 1002",
			"line2" : "",
			"town" : "FOLSOM",
			"city" : "CA",
			"postalCode" : "95630",
			"country" : "United States",
			"latitude" : "38.6440912",
			"longitude" : "-121.1866762",
			
				"openings":
		{
		
						"Sun":"10:00 AM - 7:00 PM",
						"Mon":"10:00 AM - 9:00 PM",
						"Tue":"10:00 AM - 9:00 PM",
						"Wed":"10:00 AM - 9:00 PM",
						"Thu":"10:00 AM - 9:00 PM",
						"Fri":"10:00 AM - 9:00 PM",
						"Sat":"10:00 AM - 9:00 PM"
		},

				"specialOpenings":
		{
		
						"3/13/21":"10:00 AM - 8:00 PM",
						"3/11/21":"11:00 AM - 7:00 PM",
						"3/8/21":"11:00 AM - 7:00 PM",
						"3/12/21":"10:00 AM - 8:00 PM",
						"3/14/21":"12:00 PM - 6:00 PM",
						"3/9/21":"11:00 AM - 7:00 PM",
						"3/7/21":"12:00 PM - 6:00 PM",
						"3/19/21":"10:00 AM - 8:00 PM",
						"3/15/21":"11:00 AM - 7:00 PM",
						"3/18/21":"11:00 AM - 7:00 PM",
						"3/17/21":"11:00 AM - 7:00 PM",
						"3/10/21":"11:00 AM - 7:00 PM",
						"3/20/21":"10:00 AM - 8:00 PM",
						"3/16/21":"11:00 AM - 7:00 PM"
		},

			"image" : ""
		}
	]}

