
	{"total":500,"data":[
	
		{
			"displayName" : "CROSSWAYS SHOPPING CENTER",
			"name" : "96",
			"centerType" : "STRIPMALL",
			"hideStore" : "false",
			"url" : "",
			"phone" : "7573660280",
			"formattedDistance" : "2,436.2 Miles",
			"line1" : "1412 GREENBRIER PKWY STE 101",
			"line2" : "",
			"town" : "CHESAPEAKE",
			"city" : "VA",
			"postalCode" : "23320",
			"country" : "United States",
			"latitude" : "36.7772076",
			"longitude" : "-76.2345595",
			
				"openings":
		{
		
						"Sun":"12:00 PM - 6:00 PM",
						"Mon":"10:00 AM - 9:00 PM",
						"Tue":"10:00 AM - 9:00 PM",
						"Wed":"10:00 AM - 9:00 PM",
						"Thu":"10:00 AM - 9:00 PM",
						"Fri":"10:00 AM - 9:00 PM",
						"Sat":"10:00 AM - 9:00 PM"
		},

				"specialOpenings":
		{
		
		},

			"image" : ""
		},
		{
			"displayName" : "GREENBRIER MALL",
			"name" : "260",
			"centerType" : "MALL",
			"hideStore" : "false",
			"url" : "",
			"phone" : "7574247990",
			"formattedDistance" : "2,436.5 Miles",
			"line1" : "1401 GREENBRIER PARKWAY SOUTH",
			"line2" : "",
			"town" : "CHESAPEAKE",
			"city" : "VA",
			"postalCode" : "23320",
			"country" : "United States",
			"latitude" : "36.7796122",
			"longitude" : "-76.227374",
			
				"openings":
		{
		
						"Sun":"12:00 PM - 6:00 PM",
						"Mon":"11:00 AM - 7:00 PM",
						"Tue":"11:00 AM - 7:00 PM",
						"Wed":"11:00 AM - 7:00 PM",
						"Thu":"11:00 AM - 7:00 PM",
						"Fri":"11:00 AM - 8:00 PM",
						"Sat":"11:00 AM - 8:00 PM"
		},

				"specialOpenings":
		{
		
		},

			"image" : ""
		},
		{
			"displayName" : "PEMBROKE MALL",
			"name" : "3107",
			"centerType" : "MALL",
			"hideStore" : "false",
			"url" : "",
			"phone" : "7576878825",
			"formattedDistance" : "2,438.3 Miles",
			"line1" : "4554 VIRGINIA BEACH BLVD SUITE 190",
			"line2" : "",
			"town" : "VIRGINIA BEACH",
			"city" : "VA",
			"postalCode" : "23462",
			"country" : "United States",
			"latitude" : "36.8459401",
			"longitude" : "-76.1343962",
			
				"openings":
		{
		
						"Sun":"11:00 AM - 6:00 PM",
						"Mon":"10:00 AM - 9:00 PM",
						"Tue":"10:00 AM - 9:00 PM",
						"Wed":"10:00 AM - 9:00 PM",
						"Thu":"10:00 AM - 9:00 PM",
						"Fri":"10:00 AM - 9:00 PM",
						"Sat":"10:00 AM - 9:00 PM"
		},

				"specialOpenings":
		{
		
		},

			"image" : ""
		},
		{
			"displayName" : "COASTAL NORTH TOWN CENTER",
			"name" : "661",
			"centerType" : "STRIPMALL",
			"hideStore" : "false",
			"url" : "",
			"phone" : "8436631615",
			"formattedDistance" : "2,438.6 Miles",
			"line1" : "1558 HWY 17 N SUITE C1",
			"line2" : "",
			"town" : "NORTH MYRTLE BEACH",
			"city" : "SC",
			"postalCode" : "29582",
			"country" : "United States",
			"latitude" : "33.8413956",
			"longitude" : "-78.6578628",
			
				"openings":
		{
		
						"Sun":"12:00 PM - 6:00 PM",
						"Mon":"10:00 AM - 9:00 PM",
						"Tue":"10:00 AM - 9:00 PM",
						"Wed":"10:00 AM - 9:00 PM",
						"Thu":"10:00 AM - 9:00 PM",
						"Fri":"10:00 AM - 9:00 PM",
						"Sat":"10:00 AM - 9:00 PM"
		},

				"specialOpenings":
		{
		
		},

			"image" : ""
		},
		{
			"displayName" : "LANDSTOWN COMMONS",
			"name" : "554",
			"centerType" : "STRIPMALL",
			"hideStore" : "false",
			"url" : "",
			"phone" : "7573684414",
			"formattedDistance" : "2,443.4 Miles",
			"line1" : "3300 PRINCESS ANNE RD STE 745",
			"line2" : "",
			"town" : "VIRGINIA BEACH",
			"city" : "VA",
			"postalCode" : "23456",
			"country" : "United States",
			"latitude" : "36.7725167",
			"longitude" : "-76.0850394",
			
				"openings":
		{
		
						"Sun":"11:00 AM - 6:00 PM",
						"Mon":"10:00 AM - 9:00 PM",
						"Tue":"10:00 AM - 9:00 PM",
						"Wed":"10:00 AM - 9:00 PM",
						"Thu":"10:00 AM - 9:00 PM",
						"Fri":"10:00 AM - 9:00 PM",
						"Sat":"10:00 AM - 9:00 PM"
		},

				"specialOpenings":
		{
		
		},

			"image" : ""
		}
	]}

