
	{"total":500,"data":[
	
		{
			"displayName" : "FAIRWAY PLAZA",
			"name" : "444",
			"centerType" : "STRIPMALL",
			"hideStore" : "false",
			"url" : "",
			"phone" : "2819982782",
			"formattedDistance" : "1,905.1 Miles",
			"line1" : "5762 FAIRMONT PARKWAY",
			"line2" : "",
			"town" : "PASADENA",
			"city" : "TX",
			"postalCode" : "77505",
			"country" : "United States",
			"latitude" : "29.647778",
			"longitude" : "-95.1527774",
			
				"openings":
		{
		
						"Sun":"12:00 PM - 6:00 PM",
						"Mon":"10:00 AM - 9:00 PM",
						"Tue":"10:00 AM - 9:00 PM",
						"Wed":"10:00 AM - 9:00 PM",
						"Thu":"10:00 AM - 9:00 PM",
						"Fri":"10:00 AM - 9:00 PM",
						"Sat":"10:00 AM - 9:00 PM"
		},

				"specialOpenings":
		{
		
		},

			"image" : ""
		},
		{
			"displayName" : "CENTER @ PEARLAND PKWY",
			"name" : "669",
			"centerType" : "STRIPMALL",
			"hideStore" : "false",
			"url" : "",
			"phone" : "2819977253",
			"formattedDistance" : "1,905.3 Miles",
			"line1" : "2650 PEARLAND PARKWAY SUITE 140",
			"line2" : "",
			"town" : "PEARLAND",
			"city" : "TX",
			"postalCode" : "77581",
			"country" : "United States",
			"latitude" : "29.5597969",
			"longitude" : "-95.2626487",
			
				"openings":
		{
		
						"Sun":"12:00 PM - 6:00 PM",
						"Mon":"10:00 AM - 9:00 PM",
						"Tue":"10:00 AM - 9:00 PM",
						"Wed":"10:00 AM - 9:00 PM",
						"Thu":"10:00 AM - 9:00 PM",
						"Fri":"10:00 AM - 9:00 PM",
						"Sat":"10:00 AM - 9:00 PM"
		},

				"specialOpenings":
		{
		
		},

			"image" : ""
		},
		{
			"displayName" : "TRI-LAKES VILLAGE",
			"name" : "762",
			"centerType" : "STRIPMALL",
			"hideStore" : "false",
			"url" : "",
			"phone" : "6625631832",
			"formattedDistance" : "1,906.4 Miles",
			"line1" : "105 JOHN R LOVELACE DR",
			"line2" : "",
			"town" : "BATESVILLE",
			"city" : "MS",
			"postalCode" : "38606",
			"country" : "United States",
			"latitude" : "34.3083609",
			"longitude" : "-89.9129847",
			
				"openings":
		{
		
						"Sun":"12:00 PM - 6:00 PM",
						"Mon":"10:00 AM - 9:00 PM",
						"Tue":"10:00 AM - 9:00 PM",
						"Wed":"10:00 AM - 9:00 PM",
						"Thu":"10:00 AM - 9:00 PM",
						"Fri":"10:00 AM - 9:00 PM",
						"Sat":"10:00 AM - 9:00 PM"
		},

				"specialOpenings":
		{
		
		},

			"image" : ""
		},
		{
			"displayName" : "HOPKINSVILLE TOWNE CENTER",
			"name" : "746",
			"centerType" : "STRIPMALL",
			"hideStore" : "false",
			"url" : "",
			"phone" : "2708869164",
			"formattedDistance" : "1,914.2 Miles",
			"line1" : "4853 FORT CAMPBELL BLVD",
			"line2" : "",
			"town" : "HOPKINSVILLE",
			"city" : "KY",
			"postalCode" : "42240",
			"country" : "United States",
			"latitude" : "36.8140036",
			"longitude" : "-87.4742671",
			
				"openings":
		{
		
						"Sun":"12:00 PM - 6:00 PM",
						"Mon":"10:00 AM - 9:00 PM",
						"Tue":"10:00 AM - 9:00 PM",
						"Wed":"10:00 AM - 9:00 PM",
						"Thu":"10:00 AM - 9:00 PM",
						"Fri":"10:00 AM - 9:00 PM",
						"Sat":"10:00 AM - 9:00 PM"
		},

				"specialOpenings":
		{
		
		},

			"image" : ""
		},
		{
			"displayName" : "KEMAH MARKETPLACE",
			"name" : "681",
			"centerType" : "STRIPMALL",
			"hideStore" : "false",
			"url" : "",
			"phone" : "2819579259",
			"formattedDistance" : "1,916.3 Miles",
			"line1" : "409 FM 518",
			"line2" : "",
			"town" : "KEMAH",
			"city" : "TX",
			"postalCode" : "77565",
			"country" : "United States",
			"latitude" : "29.5341814",
			"longitude" : "-95.0204154",
			
				"openings":
		{
		
						"Sun":"12:00 PM - 6:00 PM",
						"Mon":"10:00 AM - 9:00 PM",
						"Tue":"10:00 AM - 9:00 PM",
						"Wed":"10:00 AM - 9:00 PM",
						"Thu":"10:00 AM - 9:00 PM",
						"Fri":"10:00 AM - 9:00 PM",
						"Sat":"10:00 AM - 9:00 PM"
		},

				"specialOpenings":
		{
		
		},

			"image" : ""
		}
	]}

