
	{"total":500,"data":[
	
		{
			"displayName" : "TANGER OUTLET CENTER",
			"name" : "434",
			"centerType" : "OUTLET",
			"hideStore" : "false",
			"url" : "",
			"phone" : "4172391469",
			"formattedDistance" : "1,658.6 Miles",
			"line1" : "300 TANGER BLVD STE 114A",
			"line2" : "",
			"town" : "BRANSON",
			"city" : "MO",
			"postalCode" : "65616",
			"country" : "United States",
			"latitude" : "36.6439786",
			"longitude" : "-93.2648849",
			
				"openings":
		{
		
						"Sun":"10:00 AM - 7:00 PM",
						"Mon":"9:00 AM - 9:00 PM",
						"Tue":"9:00 AM - 9:00 PM",
						"Wed":"9:00 AM - 9:00 PM",
						"Thu":"9:00 AM - 9:00 PM",
						"Fri":"9:00 AM - 9:00 PM",
						"Sat":"9:00 AM - 9:00 PM"
		},

				"specialOpenings":
		{
		
		},

			"image" : ""
		},
		{
			"displayName" : "LUTON RANCH",
			"name" : "781",
			"centerType" : "STRIPMALL",
			"hideStore" : "false",
			"url" : "",
			"phone" : "8175732637",
			"formattedDistance" : "1,659.1 Miles",
			"line1" : "3740 E HWY. 377",
			"line2" : "",
			"town" : "GRANBURY",
			"city" : "TX",
			"postalCode" : "76049",
			"country" : "United States",
			"latitude" : "32.4559812",
			"longitude" : "-97.7301616",
			
				"openings":
		{
		
						"Sun":"12:00 PM - 6:00 PM",
						"Mon":"10:00 AM - 9:00 PM",
						"Tue":"10:00 AM - 9:00 PM",
						"Wed":"10:00 AM - 9:00 PM",
						"Thu":"10:00 AM - 9:00 PM",
						"Fri":"10:00 AM - 9:00 PM",
						"Sat":"10:00 AM - 9:00 PM"
		},

				"specialOpenings":
		{
		
		},

			"image" : ""
		},
		{
			"displayName" : "GATES OF PROSPER",
			"name" : "744",
			"centerType" : "STRIPMALL",
			"hideStore" : "false",
			"url" : "",
			"phone" : "9723479559",
			"formattedDistance" : "1,659.4 Miles",
			"line1" : "1071 SOUTH PRESTON RD",
			"line2" : "",
			"town" : "PROSPER",
			"city" : "TX",
			"postalCode" : "75078",
			"country" : "United States",
			"latitude" : "33.2233192",
			"longitude" : "-96.794538",
			
				"openings":
		{
		
						"Sun":"12:00 PM - 6:00 PM",
						"Mon":"10:00 AM - 9:00 PM",
						"Tue":"10:00 AM - 9:00 PM",
						"Wed":"10:00 AM - 9:00 PM",
						"Thu":"10:00 AM - 9:00 PM",
						"Fri":"10:00 AM - 9:00 PM",
						"Sat":"10:00 AM - 9:00 PM"
		},

				"specialOpenings":
		{
		
		},

			"image" : ""
		},
		{
			"displayName" : "BRANSON LANDING",
			"name" : "475",
			"centerType" : "STRIPMALL",
			"hideStore" : "false",
			"url" : "",
			"phone" : "4172392774",
			"formattedDistance" : "1,660.7 Miles",
			"line1" : "615 BRANSON LANDING",
			"line2" : "",
			"town" : "BRANSON",
			"city" : "MO",
			"postalCode" : "65616",
			"country" : "United States",
			"latitude" : "36.6469076",
			"longitude" : "-93.2143111",
			
				"openings":
		{
		
						"Sun":"10:00 AM - 8:00 PM",
						"Mon":"10:00 AM - 9:00 PM",
						"Tue":"10:00 AM - 9:00 PM",
						"Wed":"10:00 AM - 9:00 PM",
						"Thu":"10:00 AM - 9:00 PM",
						"Fri":"10:00 AM - 10:00 PM",
						"Sat":"10:00 AM - 10:00 PM"
		},

				"specialOpenings":
		{
		
		},

			"image" : ""
		},
		{
			"displayName" : "GRAPEVINE MILLS",
			"name" : "3089",
			"centerType" : "OUTLET",
			"hideStore" : "true",
			"url" : "",
			"phone" : "9726914676",
			"formattedDistance" : "1,661.7 Miles",
			"line1" : "3000 GRAPEVINE MILLS PKWY STE 603",
			"line2" : "",
			"town" : "GRAPEVINE",
			"city" : "TX",
			"postalCode" : "76051",
			"country" : "United States",
			"latitude" : "32.9649145",
			"longitude" : "-97.044089",
			
				"openings":
		{
		
						"Sun":"12:00 PM - 7:00 PM",
						"Mon":"11:00 AM - 7:00 PM",
						"Tue":"11:00 AM - 7:00 PM",
						"Wed":"11:00 AM - 7:00 PM",
						"Thu":"11:00 AM - 7:00 PM",
						"Fri":"11:00 AM - 8:00 PM",
						"Sat":"11:00 AM - 8:00 PM"
		},

				"specialOpenings":
		{
		
		},

			"image" : ""
		}
	]}

