
	{"total":500,"data":[
	
		{
			"displayName" : "CHAMBLEE PLAZA",
			"name" : "602",
			"centerType" : "STRIPMALL",
			"hideStore" : "false",
			"url" : "",
			"phone" : "7704556819",
			"formattedDistance" : "2,176.9 Miles",
			"line1" : "5496 PEACHTREE BLVD",
			"line2" : "",
			"town" : "CHAMBLEE",
			"city" : "GA",
			"postalCode" : "30341",
			"country" : "United States",
			"latitude" : "33.8983321",
			"longitude" : "-84.302379",
			
				"openings":
		{
		
						"Sun":"11:00 AM - 7:00 PM",
						"Mon":"10:00 AM - 9:00 PM",
						"Tue":"10:00 AM - 9:00 PM",
						"Wed":"10:00 AM - 9:00 PM",
						"Thu":"10:00 AM - 9:00 PM",
						"Fri":"10:00 AM - 9:00 PM",
						"Sat":"10:00 AM - 9:00 PM"
		},

				"specialOpenings":
		{
		
		},

			"image" : ""
		},
		{
			"displayName" : "NEWNAN CROSSINGS",
			"name" : "363",
			"centerType" : "STRIPMALL",
			"hideStore" : "false",
			"url" : "",
			"phone" : "7702523293",
			"formattedDistance" : "2,177.5 Miles",
			"line1" : "557 BULLSBORO DRIVE",
			"line2" : "",
			"town" : "NEWNAN",
			"city" : "GA",
			"postalCode" : "30265",
			"country" : "United States",
			"latitude" : "33.3938058",
			"longitude" : "-84.7579555",
			
				"openings":
		{
		
						"Sun":"11:00 AM - 7:00 PM",
						"Mon":"10:00 AM - 9:00 PM",
						"Tue":"10:00 AM - 9:00 PM",
						"Wed":"10:00 AM - 9:00 PM",
						"Thu":"10:00 AM - 9:00 PM",
						"Fri":"10:00 AM - 9:00 PM",
						"Sat":"10:00 AM - 9:00 PM"
		},

				"specialOpenings":
		{
		
		},

			"image" : ""
		},
		{
			"displayName" : "TIGER TOWN",
			"name" : "504",
			"centerType" : "STRIPMALL",
			"hideStore" : "false",
			"url" : "",
			"phone" : "3347370595",
			"formattedDistance" : "2,181.6 Miles",
			"line1" : "2594 ENTERPRISE DRIVE",
			"line2" : "",
			"town" : "OPELIKA",
			"city" : "AL",
			"postalCode" : "36801",
			"country" : "United States",
			"latitude" : "32.6182226",
			"longitude" : "-85.4110023",
			
				"openings":
		{
		
						"Sun":"11:00 AM - 7:00 PM",
						"Mon":"9:00 AM - 9:00 PM",
						"Tue":"9:00 AM - 9:00 PM",
						"Wed":"9:00 AM - 9:00 PM",
						"Thu":"9:00 AM - 9:00 PM",
						"Fri":"9:00 AM - 9:00 PM",
						"Sat":"9:00 AM - 9:00 PM"
		},

				"specialOpenings":
		{
		
		},

			"image" : ""
		},
		{
			"displayName" : "TANGER OUTLET CENTER",
			"name" : "156",
			"centerType" : "OUTLET",
			"hideStore" : "false",
			"url" : "",
			"phone" : "2519712525",
			"formattedDistance" : "2,182.9 Miles",
			"line1" : "2601 S MCKENZIE ST. SPACE A",
			"line2" : "",
			"town" : "FOLEY",
			"city" : "AL",
			"postalCode" : "36535",
			"country" : "United States",
			"latitude" : "30.3757446",
			"longitude" : "-87.6797877",
			
				"openings":
		{
		
						"Sun":"10:00 AM - 7:00 PM",
						"Mon":"9:00 AM - 9:00 PM",
						"Tue":"9:00 AM - 9:00 PM",
						"Wed":"9:00 AM - 9:00 PM",
						"Thu":"9:00 AM - 9:00 PM",
						"Fri":"9:00 AM - 9:00 PM",
						"Sat":"9:00 AM - 9:00 PM"
		},

				"specialOpenings":
		{
		
						"3/12/21":"10:00 AM - 7:00 PM",
						"3/15/21":"10:00 AM - 7:00 PM",
						"3/11/21":"10:00 AM - 7:00 PM",
						"3/13/21":"10:00 AM - 7:00 PM",
						"3/7/21":"10:00 AM - 7:00 PM",
						"3/16/21":"10:00 AM - 7:00 PM",
						"3/8/21":"10:00 AM - 7:00 PM",
						"3/17/21":"10:00 AM - 7:00 PM",
						"3/18/21":"10:00 AM - 7:00 PM",
						"3/9/21":"10:00 AM - 7:00 PM",
						"3/10/21":"10:00 AM - 7:00 PM",
						"3/19/21":"10:00 AM - 7:00 PM",
						"3/21/21":"10:00 AM - 7:00 PM",
						"3/22/21":"10:00 AM - 7:00 PM",
						"3/20/21":"10:00 AM - 7:00 PM",
						"3/14/21":"10:00 AM - 7:00 PM",
						"3/23/21":"10:00 AM - 7:00 PM",
						"3/25/21":"10:00 AM - 7:00 PM",
						"3/26/21":"10:00 AM - 7:00 PM",
						"3/24/21":"10:00 AM - 7:00 PM",
						"3/27/21":"10:00 AM - 7:00 PM",
						"3/29/21":"10:00 AM - 7:00 PM",
						"3/30/21":"10:00 AM - 7:00 PM",
						"3/28/21":"10:00 AM - 7:00 PM",
						"3/31/21":"10:00 AM - 7:00 PM"
		},

			"image" : ""
		},
		{
			"displayName" : "SUGARLOAF MILLS",
			"name" : "411",
			"centerType" : "OUTLET",
			"hideStore" : "false",
			"url" : "",
			"phone" : "6788475818",
			"formattedDistance" : "2,183.6 Miles",
			"line1" : "5900 SUGARLOAF PARKWAY SP 632",
			"line2" : "",
			"town" : "LAWRENCEVILLE",
			"city" : "GA",
			"postalCode" : "30043",
			"country" : "United States",
			"latitude" : "33.9811233",
			"longitude" : "-84.079501",
			
				"openings":
		{
		
						"Sun":"12:00 PM - 6:00 PM",
						"Mon":"10:00 AM - 9:00 PM",
						"Tue":"10:00 AM - 9:00 PM",
						"Wed":"10:00 AM - 9:00 PM",
						"Thu":"10:00 AM - 9:00 PM",
						"Fri":"10:00 AM - 9:00 PM",
						"Sat":"10:00 AM - 9:00 PM"
		},

				"specialOpenings":
		{
		
		},

			"image" : ""
		}
	]}

