
	{"total":500,"data":[
	
		{
			"displayName" : "VILLAGES OF AMELIA",
			"name" : "782",
			"centerType" : "STRIPMALL",
			"hideStore" : "false",
			"url" : "",
			"phone" : "9042770747",
			"formattedDistance" : "2,444.4 Miles",
			"line1" : "436923 STATE ROAD 200",
			"line2" : "",
			"town" : "YULEE",
			"city" : "FL",
			"postalCode" : "32097",
			"country" : "United States",
			"latitude" : "30.6266756",
			"longitude" : "-81.5419345",
			
				"openings":
		{
		
						"Sun":"11:00 AM - 6:00 PM",
						"Mon":"10:00 AM - 9:00 PM",
						"Tue":"10:00 AM - 9:00 PM",
						"Wed":"10:00 AM - 9:00 PM",
						"Thu":"10:00 AM - 9:00 PM",
						"Fri":"10:00 AM - 9:00 PM",
						"Sat":"10:00 AM - 9:00 PM"
		},

				"specialOpenings":
		{
		
		},

			"image" : ""
		},
		{
			"displayName" : "RIVER CITY MARKETPLACE",
			"name" : "462",
			"centerType" : "STRIPMALL",
			"hideStore" : "false",
			"url" : "",
			"phone" : "9047144184",
			"formattedDistance" : "2,446.6 Miles",
			"line1" : "13221 CITY STATION DR STE 121",
			"line2" : "",
			"town" : "JACKSONVILLE",
			"city" : "FL",
			"postalCode" : "32218",
			"country" : "United States",
			"latitude" : "30.4779001",
			"longitude" : "-81.6419511",
			
				"openings":
		{
		
						"Sun":"11:00 AM - 6:00 PM",
						"Mon":"10:00 AM - 9:00 PM",
						"Tue":"10:00 AM - 9:00 PM",
						"Wed":"10:00 AM - 9:00 PM",
						"Thu":"10:00 AM - 9:00 PM",
						"Fri":"10:00 AM - 9:00 PM",
						"Sat":"10:00 AM - 9:00 PM"
		},

				"specialOpenings":
		{
		
		},

			"image" : ""
		},
		{
			"displayName" : "RED MILL COMMONS",
			"name" : "389",
			"centerType" : "STRIPMALL",
			"hideStore" : "false",
			"url" : "",
			"phone" : "7574279481",
			"formattedDistance" : "2,447.3 Miles",
			"line1" : "1169 NIMMO PKWY STE 226",
			"line2" : "",
			"town" : "VIRGINIA BEACH",
			"city" : "VA",
			"postalCode" : "23456",
			"country" : "United States",
			"latitude" : "36.760966",
			"longitude" : "-76.01062",
			
				"openings":
		{
		
						"Sun":"11:00 AM - 6:00 PM",
						"Mon":"10:00 AM - 9:00 PM",
						"Tue":"10:00 AM - 9:00 PM",
						"Wed":"10:00 AM - 9:00 PM",
						"Thu":"10:00 AM - 9:00 PM",
						"Fri":"10:00 AM - 9:00 PM",
						"Sat":"10:00 AM - 9:00 PM"
		},

				"specialOpenings":
		{
		
		},

			"image" : ""
		},
		{
			"displayName" : "TJ MAXX PLAZA",
			"name" : "3045",
			"centerType" : "STRIPMALL",
			"hideStore" : "true",
			"url" : "",
			"phone" : "6032222049",
			"formattedDistance" : "2,450.1 Miles",
			"line1" : "70 MARCH AVE",
			"line2" : "",
			"town" : "MANCHESTER",
			"city" : "NH",
			"postalCode" : "03103",
			"country" : "United States",
			"latitude" : "42.9612809",
			"longitude" : "-71.4419339",
			
				"openings":
		{
		
						"Sun":"10:00 AM - 7:00 PM",
						"Mon":"10:00 AM - 9:00 PM",
						"Tue":"10:00 AM - 9:00 PM",
						"Wed":"10:00 AM - 9:00 PM",
						"Thu":"10:00 AM - 9:00 PM",
						"Fri":"10:00 AM - 9:00 PM",
						"Sat":"10:00 AM - 9:00 PM"
		},

				"specialOpenings":
		{
		
						"3/8/21":"10:00 AM - 8:00 PM",
						"3/9/21":"10:00 AM - 8:00 PM",
						"3/7/21":"10:00 AM - 6:00 PM",
						"3/14/21":"10:00 AM - 6:00 PM",
						"3/11/21":"10:00 AM - 8:00 PM",
						"3/16/21":"10:00 AM - 8:00 PM",
						"3/15/21":"10:00 AM - 8:00 PM",
						"3/10/21":"10:00 AM - 8:00 PM",
						"3/13/21":"10:00 AM - 8:00 PM",
						"3/12/21":"10:00 AM - 8:00 PM",
						"3/19/21":"10:00 AM - 8:00 PM",
						"3/17/21":"10:00 AM - 8:00 PM",
						"3/21/21":"10:00 AM - 6:00 PM",
						"3/23/21":"10:00 AM - 8:00 PM",
						"3/18/21":"10:00 AM - 8:00 PM",
						"3/22/21":"10:00 AM - 8:00 PM",
						"3/20/21":"10:00 AM - 8:00 PM",
						"3/26/21":"10:00 AM - 8:00 PM",
						"3/24/21":"10:00 AM - 8:00 PM",
						"3/25/21":"10:00 AM - 8:00 PM",
						"3/28/21":"10:00 AM - 6:00 PM",
						"3/29/21":"10:00 AM - 8:00 PM",
						"3/31/21":"10:00 AM - 8:00 PM",
						"4/1/21":"10:00 AM - 8:00 PM",
						"3/30/21":"10:00 AM - 8:00 PM",
						"3/27/21":"10:00 AM - 8:00 PM",
						"4/3/21":"10:00 AM - 8:00 PM",
						"4/4/21":"12:00 PM - 12:00 PM",
						"4/2/21":"10:00 AM - 8:00 PM"
		},

			"image" : ""
		},
		{
			"displayName" : "SHOPPES AT TANGLEWOOD",
			"name" : "688",
			"centerType" : "STRIPMALL",
			"hideStore" : "false",
			"url" : "",
			"phone" : "2523304954",
			"formattedDistance" : "2,451.5 Miles",
			"line1" : "3850 CONLON WAY STE H",
			"line2" : "",
			"town" : "ELIZABETH CITY",
			"city" : "NC",
			"postalCode" : "27909",
			"country" : "United States",
			"latitude" : "36.2962283",
			"longitude" : "-76.2947936",
			
				"openings":
		{
		
						"Sun":"12:00 PM - 6:00 PM",
						"Mon":"10:00 AM - 9:00 PM",
						"Tue":"10:00 AM - 9:00 PM",
						"Wed":"10:00 AM - 9:00 PM",
						"Thu":"10:00 AM - 9:00 PM",
						"Fri":"10:00 AM - 9:00 PM",
						"Sat":"10:00 AM - 9:00 PM"
		},

				"specialOpenings":
		{
		
		},

			"image" : ""
		}
	]}

