
	{"total":500,"data":[
	
		{
			"displayName" : "KATY MILLS",
			"name" : "3090",
			"centerType" : "OUTLET",
			"hideStore" : "true",
			"url" : "",
			"phone" : "2816444800",
			"formattedDistance" : "1,872.4 Miles",
			"line1" : "5000 KATY MILLS CIR STE 201",
			"line2" : "",
			"town" : "KATY",
			"city" : "TX",
			"postalCode" : "77494",
			"country" : "United States",
			"latitude" : "29.7739641",
			"longitude" : "-95.8099221",
			
				"openings":
		{
		
						"Sun":"11:00 AM - 6:00 PM",
						"Mon":"10:00 AM - 9:00 PM",
						"Tue":"10:00 AM - 9:00 PM",
						"Wed":"10:00 AM - 9:00 PM",
						"Thu":"10:00 AM - 9:00 PM",
						"Fri":"10:00 AM - 9:00 PM",
						"Sat":"10:00 AM - 9:00 PM"
		},

				"specialOpenings":
		{
		
		},

			"image" : ""
		},
		{
			"displayName" : "EASTGATE SHOPPING CENTER",
			"name" : "154",
			"centerType" : "STRIPMALL",
			"hideStore" : "false",
			"url" : "",
			"phone" : "9016821584",
			"formattedDistance" : "1,873.3 Miles",
			"line1" : "5110 PARK AVE",
			"line2" : "",
			"town" : "MEMPHIS",
			"city" : "TN",
			"postalCode" : "38117",
			"country" : "United States",
			"latitude" : "35.1076826",
			"longitude" : "-89.8911968",
			
				"openings":
		{
		
						"Sun":"12:00 PM - 6:00 PM",
						"Mon":"10:00 AM - 9:00 PM",
						"Tue":"10:00 AM - 9:00 PM",
						"Wed":"10:00 AM - 9:00 PM",
						"Thu":"10:00 AM - 9:00 PM",
						"Fri":"10:00 AM - 9:00 PM",
						"Sat":"10:00 AM - 9:00 PM"
		},

				"specialOpenings":
		{
		
		},

			"image" : ""
		},
		{
			"displayName" : "THE COMMONS",
			"name" : "287",
			"centerType" : "STRIPMALL",
			"hideStore" : "false",
			"url" : "",
			"phone" : "9013728818",
			"formattedDistance" : "1,873.9 Miles",
			"line1" : "8075 GIACOSA PL STE 103",
			"line2" : "",
			"town" : "MEMPHIS",
			"city" : "TN",
			"postalCode" : "38133",
			"country" : "United States",
			"latitude" : "35.1975026",
			"longitude" : "-89.7941409",
			
				"openings":
		{
		
						"Sun":"12:00 PM - 6:00 PM",
						"Mon":"10:00 AM - 9:00 PM",
						"Tue":"10:00 AM - 9:00 PM",
						"Wed":"10:00 AM - 9:00 PM",
						"Thu":"10:00 AM - 9:00 PM",
						"Fri":"10:00 AM - 9:00 PM",
						"Sat":"10:00 AM - 9:00 PM"
		},

				"specialOpenings":
		{
		
		},

			"image" : ""
		},
		{
			"displayName" : "WOLFCHASE GALLERIA",
			"name" : "266",
			"centerType" : "MALL",
			"hideStore" : "false",
			"url" : "",
			"phone" : "9013771151",
			"formattedDistance" : "1,874.1 Miles",
			"line1" : "2760 N GERMANTOWN PKWY STE 201",
			"line2" : "",
			"town" : "MEMPHIS",
			"city" : "TN",
			"postalCode" : "38133",
			"country" : "United States",
			"latitude" : "35.1997649",
			"longitude" : "-89.7886123",
			
				"openings":
		{
		
						"Sun":"12:00 PM - 6:00 PM",
						"Mon":"10:00 AM - 9:00 PM",
						"Tue":"10:00 AM - 9:00 PM",
						"Wed":"10:00 AM - 9:00 PM",
						"Thu":"10:00 AM - 9:00 PM",
						"Fri":"10:00 AM - 9:00 PM",
						"Sat":"10:00 AM - 9:00 PM"
		},

				"specialOpenings":
		{
		
		},

			"image" : ""
		},
		{
			"displayName" : "GREENWOOD PARK MALL",
			"name" : "199",
			"centerType" : "MALL",
			"hideStore" : "false",
			"url" : "",
			"phone" : "3178880095",
			"formattedDistance" : "1,874.7 Miles",
			"line1" : "1251 US HWY 31 N BOX 64",
			"line2" : "",
			"town" : "GREENWOOD",
			"city" : "IN",
			"postalCode" : "46142",
			"country" : "United States",
			"latitude" : "39.6326848",
			"longitude" : "-86.1207542",
			
				"openings":
		{
		
						"Sun":"11:00 AM - 6:00 PM",
						"Mon":"10:00 AM - 9:00 PM",
						"Tue":"10:00 AM - 9:00 PM",
						"Wed":"10:00 AM - 9:00 PM",
						"Thu":"10:00 AM - 9:00 PM",
						"Fri":"10:00 AM - 9:00 PM",
						"Sat":"10:00 AM - 9:00 PM"
		},

				"specialOpenings":
		{
		
						"3/10/21":"11:00 AM - 7:00 PM",
						"3/11/21":"11:00 AM - 7:00 PM",
						"3/8/21":"11:00 AM - 7:00 PM",
						"3/12/21":"10:00 AM - 8:00 PM",
						"3/9/21":"11:00 AM - 7:00 PM",
						"3/13/21":"10:00 AM - 8:00 PM",
						"3/14/21":"12:00 PM - 6:00 PM",
						"3/15/21":"11:00 AM - 7:00 PM",
						"3/19/21":"10:00 AM - 8:00 PM",
						"3/16/21":"11:00 AM - 7:00 PM",
						"3/17/21":"11:00 AM - 7:00 PM",
						"3/18/21":"11:00 AM - 7:00 PM",
						"3/21/21":"12:00 PM - 6:00 PM",
						"3/7/21":"12:00 PM - 6:00 PM",
						"3/24/21":"11:00 AM - 7:00 PM",
						"3/22/21":"11:00 AM - 7:00 PM",
						"3/23/21":"11:00 AM - 7:00 PM",
						"3/26/21":"10:00 AM - 8:00 PM",
						"3/27/21":"10:00 AM - 8:00 PM",
						"3/31/21":"11:00 AM - 7:00 PM",
						"3/30/21":"11:00 AM - 7:00 PM",
						"3/29/21":"11:00 AM - 7:00 PM",
						"3/25/21":"11:00 AM - 7:00 PM",
						"3/20/21":"10:00 AM - 8:00 PM",
						"3/28/21":"12:00 PM - 6:00 PM"
		},

			"image" : ""
		}
	]}

