
	{"total":500,"data":[
	
		{
			"displayName" : "SILVER LAKE VILLAGE",
			"name" : "734",
			"centerType" : "STRIPMALL",
			"hideStore" : "false",
			"url" : "",
			"phone" : "9183319896",
			"formattedDistance" : "1,535.8 Miles",
			"line1" : "2433 SE ADAMS BLVD",
			"line2" : "",
			"town" : "BARTLESVILLE",
			"city" : "OK",
			"postalCode" : "74003",
			"country" : "United States",
			"latitude" : "36.7407407",
			"longitude" : "-95.9491452",
			
				"openings":
		{
		
						"Sun":"11:00 AM - 6:00 PM",
						"Mon":"10:00 AM - 9:00 PM",
						"Tue":"10:00 AM - 9:00 PM",
						"Wed":"10:00 AM - 9:00 PM",
						"Thu":"10:00 AM - 9:00 PM",
						"Fri":"10:00 AM - 9:00 PM",
						"Sat":"10:00 AM - 9:00 PM"
		},

				"specialOpenings":
		{
		
		},

			"image" : ""
		},
		{
			"displayName" : "TULSA HILLS SHOPPING CENTER",
			"name" : "517",
			"centerType" : "STRIPMALL",
			"hideStore" : "false",
			"url" : "",
			"phone" : "9184478846",
			"formattedDistance" : "1,562.8 Miles",
			"line1" : "7403 S. OLYMPIA AVE",
			"line2" : "",
			"town" : "TULSA",
			"city" : "OK",
			"postalCode" : "74132",
			"country" : "United States",
			"latitude" : "36.0562817",
			"longitude" : "-96.0010893",
			
				"openings":
		{
		
						"Sun":"12:00 PM - 6:00 PM",
						"Mon":"10:00 AM - 9:00 PM",
						"Tue":"10:00 AM - 9:00 PM",
						"Wed":"10:00 AM - 9:00 PM",
						"Thu":"10:00 AM - 9:00 PM",
						"Fri":"10:00 AM - 9:00 PM",
						"Sat":"10:00 AM - 9:00 PM"
		},

				"specialOpenings":
		{
		
		},

			"image" : ""
		},
		{
			"displayName" : "OSAGE BEACH OUTLET MARKETPLACE",
			"name" : "539",
			"centerType" : "OUTLET",
			"hideStore" : "false",
			"url" : "",
			"phone" : "5733024542",
			"formattedDistance" : "1,627.8 Miles",
			"line1" : "4540 HIGHWAY 54 STE D1",
			"line2" : "",
			"town" : "OSAGE BEACH",
			"city" : "MO",
			"postalCode" : "65065",
			"country" : "United States",
			"latitude" : "38.1364615",
			"longitude" : "-92.6397505",
			
				"openings":
		{
		
						"Sun":"10:00 AM - 7:00 PM",
						"Mon":"10:00 AM - 9:00 PM",
						"Tue":"10:00 AM - 9:00 PM",
						"Wed":"10:00 AM - 9:00 PM",
						"Thu":"10:00 AM - 9:00 PM",
						"Fri":"10:00 AM - 9:00 PM",
						"Sat":"10:00 AM - 9:00 PM"
		},

				"specialOpenings":
		{
		
		},

			"image" : ""
		},
		{
			"displayName" : "BATTLEFIELD MALL",
			"name" : "537",
			"centerType" : "MALL",
			"hideStore" : "false",
			"url" : "",
			"phone" : "4178909274",
			"formattedDistance" : "1,637.6 Miles",
			"line1" : "2825 S GLENSTONE SPACE EO4D",
			"line2" : "",
			"town" : "SPRINGFIELD",
			"city" : "MO",
			"postalCode" : "65804",
			"country" : "United States",
			"latitude" : "37.1614457",
			"longitude" : "-93.2652386",
			
				"openings":
		{
		
						"Sun":"12:00 PM - 6:00 PM",
						"Mon":"10:00 AM - 9:00 PM",
						"Tue":"10:00 AM - 9:00 PM",
						"Wed":"10:00 AM - 9:00 PM",
						"Thu":"10:00 AM - 9:00 PM",
						"Fri":"10:00 AM - 9:00 PM",
						"Sat":"10:00 AM - 9:00 PM"
		},

				"specialOpenings":
		{
		
						"3/7/21":"12:00 PM - 6:00 PM",
						"3/9/21":"11:00 AM - 7:00 PM",
						"3/10/21":"11:00 AM - 7:00 PM",
						"3/11/21":"11:00 AM - 7:00 PM",
						"3/18/21":"11:00 AM - 7:00 PM",
						"3/14/21":"12:00 PM - 6:00 PM",
						"3/15/21":"11:00 AM - 7:00 PM",
						"3/22/21":"11:00 AM - 7:00 PM",
						"3/23/21":"11:00 AM - 7:00 PM",
						"3/21/21":"12:00 PM - 6:00 PM",
						"3/20/21":"10:00 AM - 8:00 PM",
						"3/17/21":"11:00 AM - 7:00 PM",
						"3/13/21":"10:00 AM - 8:00 PM",
						"3/19/21":"10:00 AM - 8:00 PM",
						"3/26/21":"10:00 AM - 8:00 PM",
						"3/27/21":"10:00 AM - 8:00 PM",
						"3/24/21":"11:00 AM - 7:00 PM",
						"3/28/21":"12:00 PM - 6:00 PM",
						"3/31/21":"11:00 AM - 7:00 PM",
						"3/25/21":"11:00 AM - 7:00 PM",
						"4/1/21":"11:00 AM - 7:00 PM",
						"3/12/21":"10:00 AM - 8:00 PM",
						"3/29/21":"11:00 AM - 7:00 PM",
						"3/16/21":"11:00 AM - 7:00 PM",
						"4/4/21":"12:00 PM - 6:00 PM",
						"4/3/21":"10:00 AM - 8:00 PM",
						"3/8/21":"11:00 AM - 7:00 PM",
						"4/2/21":"10:00 AM - 8:00 PM",
						"3/30/21":"11:00 AM - 7:00 PM"
		},

			"image" : ""
		},
		{
			"displayName" : "NORTHWEST ARKANSAS MALL",
			"name" : "582",
			"centerType" : "MALL",
			"hideStore" : "false",
			"url" : "",
			"phone" : "4794446194",
			"formattedDistance" : "1,640.8 Miles",
			"line1" : "4201 NORTH SHILOH DRIVE #1325",
			"line2" : "",
			"town" : "FAYETTEVILLE",
			"city" : "AR",
			"postalCode" : "72703",
			"country" : "United States",
			"latitude" : "36.12901844",
			"longitude" : "-94.14767331",
			
				"openings":
		{
		
						"Sun":"12:00 PM - 6:00 PM",
						"Mon":"10:00 AM - 9:00 PM",
						"Tue":"10:00 AM - 9:00 PM",
						"Wed":"10:00 AM - 9:00 PM",
						"Thu":"10:00 AM - 9:00 PM",
						"Fri":"10:00 AM - 9:00 PM",
						"Sat":"10:00 AM - 9:00 PM"
		},

				"specialOpenings":
		{
		
		},

			"image" : ""
		}
	]}

