
	{"total":500,"data":[
	
		{
			"displayName" : "NORTHCROSS SHOPPING CENTER",
			"name" : "200",
			"centerType" : "STRIPMALL",
			"hideStore" : "false",
			"url" : "",
			"phone" : "7048950205",
			"formattedDistance" : "2,272.4 Miles",
			"line1" : "9815 SAM FURR ROAD STE A",
			"line2" : "",
			"town" : "HUNTERSVILLE",
			"city" : "NC",
			"postalCode" : "28078",
			"country" : "United States",
			"latitude" : "35.44257",
			"longitude" : "-80.8612587",
			
				"openings":
		{
		
						"Sun":"12:00 PM - 6:00 PM",
						"Mon":"10:00 AM - 9:00 PM",
						"Tue":"10:00 AM - 9:00 PM",
						"Wed":"10:00 AM - 9:00 PM",
						"Thu":"10:00 AM - 9:00 PM",
						"Fri":"10:00 AM - 9:00 PM",
						"Sat":"10:00 AM - 9:00 PM"
		},

				"specialOpenings":
		{
		
		},

			"image" : ""
		},
		{
			"displayName" : "THRUWAY SHOPPING CENTER",
			"name" : "67",
			"centerType" : "STRIPMALL",
			"hideStore" : "false",
			"url" : "",
			"phone" : "3367219444",
			"formattedDistance" : "2,273.9 Miles",
			"line1" : "220 S STRATFORD RD",
			"line2" : "",
			"town" : "WINSTON-SALEM",
			"city" : "NC",
			"postalCode" : "27103",
			"country" : "United States",
			"latitude" : "36.0932461",
			"longitude" : "-80.2813048",
			
				"openings":
		{
		
						"Sun":"12:00 PM - 6:00 PM",
						"Mon":"10:00 AM - 9:00 PM",
						"Tue":"10:00 AM - 9:00 PM",
						"Wed":"10:00 AM - 9:00 PM",
						"Thu":"10:00 AM - 9:00 PM",
						"Fri":"10:00 AM - 9:00 PM",
						"Sat":"10:00 AM - 9:00 PM"
		},

				"specialOpenings":
		{
		
		},

			"image" : ""
		},
		{
			"displayName" : "HANES MALL",
			"name" : "15",
			"centerType" : "MALL",
			"hideStore" : "false",
			"url" : "",
			"phone" : "3367686401",
			"formattedDistance" : "2,274 Miles",
			"line1" : "3320 SILAS CREEK PKWY STE 6608",
			"line2" : "",
			"town" : "WINSTON-SALEM",
			"city" : "NC",
			"postalCode" : "27103",
			"country" : "United States",
			"latitude" : "36.0703319",
			"longitude" : "-80.3000694",
			
				"openings":
		{
		
						"Sun":"12:00 PM - 6:00 PM",
						"Mon":"10:00 AM - 9:00 PM",
						"Tue":"10:00 AM - 9:00 PM",
						"Wed":"10:00 AM - 9:00 PM",
						"Thu":"10:00 AM - 9:00 PM",
						"Fri":"10:00 AM - 9:00 PM",
						"Sat":"10:00 AM - 9:00 PM"
		},

				"specialOpenings":
		{
		
		},

			"image" : ""
		},
		{
			"displayName" : "PERIMETER WOODS",
			"name" : "3067",
			"centerType" : "STRIPMALL",
			"hideStore" : "true",
			"url" : "",
			"phone" : "7045969507",
			"formattedDistance" : "2,276.5 Miles",
			"line1" : "10235 PERIMETER PKWY STE A",
			"line2" : "",
			"town" : "CHARLOTTE",
			"city" : "NC",
			"postalCode" : "28216",
			"country" : "United States",
			"latitude" : "35.347476",
			"longitude" : "-80.853869",
			
				"openings":
		{
		
						"Sun":"11:00 AM - 7:00 PM",
						"Mon":"10:00 AM - 9:00 PM",
						"Tue":"10:00 AM - 9:00 PM",
						"Wed":"10:00 AM - 9:00 PM",
						"Thu":"10:00 AM - 9:00 PM",
						"Fri":"10:00 AM - 9:00 PM",
						"Sat":"10:00 AM - 9:00 PM"
		},

				"specialOpenings":
		{
		
						"3/8/21":"11:00 AM - 8:00 PM"
		},

			"image" : ""
		},
		{
			"displayName" : "WARDS CROSSING",
			"name" : "116",
			"centerType" : "STRIPMALL",
			"hideStore" : "false",
			"url" : "",
			"phone" : "4342378568",
			"formattedDistance" : "2,277.5 Miles",
			"line1" : "4026 E WARDS RD",
			"line2" : "",
			"town" : "LYNCHBURG",
			"city" : "VA",
			"postalCode" : "24502",
			"country" : "United States",
			"latitude" : "37.3474003",
			"longitude" : "-79.1910917",
			
				"openings":
		{
		
						"Sun":"12:00 PM - 6:00 PM",
						"Mon":"10:00 AM - 9:00 PM",
						"Tue":"10:00 AM - 9:00 PM",
						"Wed":"10:00 AM - 9:00 PM",
						"Thu":"10:00 AM - 9:00 PM",
						"Fri":"10:00 AM - 9:00 PM",
						"Sat":"10:00 AM - 9:00 PM"
		},

				"specialOpenings":
		{
		
		},

			"image" : ""
		}
	]}

