
	{"total":500,"data":[
	
		{
			"displayName" : "RIO HILL SHOPPING CENTER",
			"name" : "103",
			"centerType" : "STRIPMALL",
			"hideStore" : "false",
			"url" : "",
			"phone" : "4349747303",
			"formattedDistance" : "2,284.1 Miles",
			"line1" : "1800 RIO HILL CENTER",
			"line2" : "",
			"town" : "CHARLOTTESVILLE",
			"city" : "VA",
			"postalCode" : "22901",
			"country" : "United States",
			"latitude" : "38.0868943",
			"longitude" : "-78.4738637",
			
				"openings":
		{
		
						"Sun":"12:00 PM - 6:00 PM",
						"Mon":"10:00 AM - 9:00 PM",
						"Tue":"10:00 AM - 9:00 PM",
						"Wed":"10:00 AM - 9:00 PM",
						"Thu":"10:00 AM - 9:00 PM",
						"Fri":"10:00 AM - 9:00 PM",
						"Sat":"10:00 AM - 9:00 PM"
		},

				"specialOpenings":
		{
		
		},

			"image" : ""
		},
		{
			"displayName" : "CAROLINA PLACE MALL",
			"name" : "120",
			"centerType" : "MALL",
			"hideStore" : "false",
			"url" : "",
			"phone" : "7045428716",
			"formattedDistance" : "2,286 Miles",
			"line1" : "11025 CAROLINA PLACE PKWY STE D39",
			"line2" : "",
			"town" : "PINEVILLE",
			"city" : "NC",
			"postalCode" : "28134",
			"country" : "United States",
			"latitude" : "35.0813417",
			"longitude" : "-80.8756127",
			
				"openings":
		{
		
						"Sun":"12:00 PM - 6:00 PM",
						"Mon":"10:00 AM - 9:00 PM",
						"Tue":"10:00 AM - 9:00 PM",
						"Wed":"10:00 AM - 9:00 PM",
						"Thu":"10:00 AM - 9:00 PM",
						"Fri":"10:00 AM - 9:00 PM",
						"Sat":"10:00 AM - 9:00 PM"
		},

				"specialOpenings":
		{
		
						"3/8/21":"11:00 AM - 7:00 PM",
						"3/9/21":"11:00 AM - 7:00 PM",
						"3/11/21":"11:00 AM - 7:00 PM",
						"3/10/21":"11:00 AM - 7:00 PM",
						"3/15/21":"11:00 AM - 7:00 PM",
						"3/20/21":"11:00 AM - 8:00 PM",
						"3/19/21":"11:00 AM - 8:00 PM",
						"3/22/21":"11:00 AM - 7:00 PM",
						"3/23/21":"11:00 AM - 7:00 PM",
						"3/13/21":"11:00 AM - 8:00 PM",
						"3/24/21":"11:00 AM - 7:00 PM",
						"3/16/21":"11:00 AM - 7:00 PM",
						"3/27/21":"11:00 AM - 8:00 PM",
						"3/17/21":"11:00 AM - 7:00 PM",
						"3/29/21":"11:00 AM - 7:00 PM",
						"3/12/21":"11:00 AM - 8:00 PM",
						"3/18/21":"11:00 AM - 7:00 PM",
						"3/25/21":"11:00 AM - 7:00 PM",
						"3/31/21":"11:00 AM - 7:00 PM",
						"3/26/21":"11:00 AM - 8:00 PM",
						"3/30/21":"11:00 AM - 7:00 PM"
		},

			"image" : ""
		},
		{
			"displayName" : "ROCK HILL GALLERIA",
			"name" : "20",
			"centerType" : "STRIPMALL",
			"hideStore" : "false",
			"url" : "",
			"phone" : "8033299899",
			"formattedDistance" : "2,287.5 Miles",
			"line1" : "2331 DAVE LYLE BLVD",
			"line2" : "",
			"town" : "ROCK HILL",
			"city" : "SC",
			"postalCode" : "29730",
			"country" : "United States",
			"latitude" : "34.9414292",
			"longitude" : "-80.9640955",
			
				"openings":
		{
		
						"Sun":"12:00 PM - 6:00 PM",
						"Mon":"10:00 AM - 9:00 PM",
						"Tue":"10:00 AM - 9:00 PM",
						"Wed":"10:00 AM - 9:00 PM",
						"Thu":"10:00 AM - 9:00 PM",
						"Fri":"10:00 AM - 9:00 PM",
						"Sat":"10:00 AM - 9:00 PM"
		},

				"specialOpenings":
		{
		
		},

			"image" : ""
		},
		{
			"displayName" : "FREDERICK CROSSING",
			"name" : "3038",
			"centerType" : "STRIPMALL",
			"hideStore" : "true",
			"url" : "",
			"phone" : "3016621438",
			"formattedDistance" : "2,287.8 Miles",
			"line1" : "7340 GUILFORD DR",
			"line2" : "",
			"town" : "FREDERICK",
			"city" : "MD",
			"postalCode" : "21704",
			"country" : "United States",
			"latitude" : "39.3975442",
			"longitude" : "-77.4141645",
			
				"openings":
		{
		
						"Sun":"11:00 AM - 7:00 PM",
						"Mon":"10:00 AM - 9:00 PM",
						"Tue":"10:00 AM - 9:00 PM",
						"Wed":"10:00 AM - 9:00 PM",
						"Thu":"10:00 AM - 9:00 PM",
						"Fri":"10:00 AM - 9:00 PM",
						"Sat":"10:00 AM - 9:00 PM"
		},

				"specialOpenings":
		{
		
		},

			"image" : ""
		},
		{
			"displayName" : "THE ARBORETUM",
			"name" : "83",
			"centerType" : "STRIPMALL",
			"hideStore" : "false",
			"url" : "",
			"phone" : "7045434622",
			"formattedDistance" : "2,289.8 Miles",
			"line1" : "8036 PROVIDENCE RD STE 400",
			"line2" : "",
			"town" : "CHARLOTTE",
			"city" : "NC",
			"postalCode" : "28277",
			"country" : "United States",
			"latitude" : "35.0971424",
			"longitude" : "-80.7805402",
			
				"openings":
		{
		
						"Sun":"12:00 PM - 6:00 PM",
						"Mon":"10:00 AM - 9:00 PM",
						"Tue":"10:00 AM - 9:00 PM",
						"Wed":"10:00 AM - 9:00 PM",
						"Thu":"10:00 AM - 9:00 PM",
						"Fri":"10:00 AM - 9:00 PM",
						"Sat":"10:00 AM - 9:00 PM"
		},

				"specialOpenings":
		{
		
		},

			"image" : ""
		}
	]}

