
	{"total":500,"data":[
	
		{
			"displayName" : "HERITAGE CROSSING",
			"name" : "501",
			"centerType" : "STRIPMALL",
			"hideStore" : "false",
			"url" : "",
			"phone" : "2522347463",
			"formattedDistance" : "2,395 Miles",
			"line1" : "3401 RALEIGH ROAD PKWY W STE 2F",
			"line2" : "",
			"town" : "WILSON",
			"city" : "NC",
			"postalCode" : "27896",
			"country" : "United States",
			"latitude" : "35.742021",
			"longitude" : "-77.9650439",
			
				"openings":
		{
		
						"Sun":"12:00 PM - 6:00 PM",
						"Mon":"10:00 AM - 9:00 PM",
						"Tue":"10:00 AM - 9:00 PM",
						"Wed":"10:00 AM - 9:00 PM",
						"Thu":"10:00 AM - 9:00 PM",
						"Fri":"10:00 AM - 9:00 PM",
						"Sat":"10:00 AM - 9:00 PM"
		},

				"specialOpenings":
		{
		
		},

			"image" : ""
		},
		{
			"displayName" : "STATEN ISLAND MALL",
			"name" : "680",
			"centerType" : "MALL",
			"hideStore" : "false",
			"url" : "",
			"phone" : "7184770417",
			"formattedDistance" : "2,399.3 Miles",
			"line1" : "2655 RICHMOND AVE SPACE 1340",
			"line2" : "",
			"town" : "STATEN ISLAND",
			"city" : "NY",
			"postalCode" : "10314",
			"country" : "United States",
			"latitude" : "40.5807482",
			"longitude" : "-74.1659706",
			
				"openings":
		{
		
						"Sun":"11:00 AM - 6:00 PM",
						"Mon":"10:00 AM - 9:00 PM",
						"Tue":"10:00 AM - 9:00 PM",
						"Wed":"10:00 AM - 9:00 PM",
						"Thu":"10:00 AM - 9:00 PM",
						"Fri":"10:00 AM - 9:00 PM",
						"Sat":"10:00 AM - 9:00 PM"
		},

				"specialOpenings":
		{
		
		},

			"image" : ""
		},
		{
			"displayName" : "FOX MILL",
			"name" : "712",
			"centerType" : "STRIPMALL",
			"hideStore" : "false",
			"url" : "",
			"phone" : "8047925011",
			"formattedDistance" : "2,399.7 Miles",
			"line1" : "6712 FOX CENTRE PKWY",
			"line2" : "",
			"town" : "GLOUCESTER",
			"city" : "VA",
			"postalCode" : "23061",
			"country" : "United States",
			"latitude" : "37.3973537",
			"longitude" : "-76.5271769",
			
				"openings":
		{
		
						"Sun":"12:00 PM - 6:00 PM",
						"Mon":"10:00 AM - 9:00 PM",
						"Tue":"10:00 AM - 9:00 PM",
						"Wed":"10:00 AM - 9:00 PM",
						"Thu":"10:00 AM - 9:00 PM",
						"Fri":"10:00 AM - 9:00 PM",
						"Sat":"10:00 AM - 9:00 PM"
		},

				"specialOpenings":
		{
		
		},

			"image" : ""
		},
		{
			"displayName" : "SAVANNAH CENTRE",
			"name" : "53",
			"centerType" : "STRIPMALL",
			"hideStore" : "false",
			"url" : "",
			"phone" : "9123523546",
			"formattedDistance" : "2,403 Miles",
			"line1" : "7400 ABERCORN ST. UNIT 16",
			"line2" : "",
			"town" : "SAVANNAH",
			"city" : "GA",
			"postalCode" : "31406",
			"country" : "United States",
			"latitude" : "32.0070645",
			"longitude" : "-81.1124103",
			
				"openings":
		{
		
						"Sun":"12:00 PM - 6:00 PM",
						"Mon":"10:00 AM - 9:00 PM",
						"Tue":"10:00 AM - 9:00 PM",
						"Wed":"10:00 AM - 9:00 PM",
						"Thu":"10:00 AM - 9:00 PM",
						"Fri":"10:00 AM - 9:00 PM",
						"Sat":"10:00 AM - 9:00 PM"
		},

				"specialOpenings":
		{
		
		},

			"image" : ""
		},
		{
			"displayName" : "TANGER OUTLET HILTON HEAD",
			"name" : "355",
			"centerType" : "OUTLET",
			"hideStore" : "false",
			"url" : "",
			"phone" : "8438362551",
			"formattedDistance" : "2,406.4 Miles",
			"line1" : "1414 FORDING ISLAND RD STE F-160",
			"line2" : "",
			"town" : "BLUFFTON",
			"city" : "SC",
			"postalCode" : "29910",
			"country" : "United States",
			"latitude" : "32.2403459",
			"longitude" : "-80.8176656",
			
				"openings":
		{
		
						"Sun":"10:00 AM - 7:00 PM",
						"Mon":"9:00 AM - 9:00 PM",
						"Tue":"9:00 AM - 9:00 PM",
						"Wed":"9:00 AM - 9:00 PM",
						"Thu":"9:00 AM - 9:00 PM",
						"Fri":"9:00 AM - 9:00 PM",
						"Sat":"9:00 AM - 9:00 PM"
		},

				"specialOpenings":
		{
		
		},

			"image" : ""
		}
	]}

