
	{"total":500,"data":[
	
		{
			"displayName" : "WARD PARKWAY MALL",
			"name" : "3052",
			"centerType" : "MALL",
			"hideStore" : "true",
			"url" : "",
			"phone" : "8168228858",
			"formattedDistance" : "1,507.3 Miles",
			"line1" : "8600 WARD PKWY",
			"line2" : "",
			"town" : "KANSAS CITY",
			"city" : "MO",
			"postalCode" : "64114",
			"country" : "United States",
			"latitude" : "38.9706721",
			"longitude" : "-94.60684",
			
				"openings":
		{
		
						"Sun":"12:00 PM - 6:00 PM",
						"Mon":"10:00 AM - 9:00 PM",
						"Tue":"10:00 AM - 9:00 PM",
						"Wed":"10:00 AM - 9:00 PM",
						"Thu":"10:00 AM - 9:00 PM",
						"Fri":"10:00 AM - 9:00 PM",
						"Sat":"10:00 AM - 9:00 PM"
		},

				"specialOpenings":
		{
		
		},

			"image" : ""
		},
		{
			"displayName" : "CROSSROADS CENTER",
			"name" : "512",
			"centerType" : "STRIPMALL",
			"hideStore" : "false",
			"url" : "",
			"phone" : "4323623040",
			"formattedDistance" : "1,511.2 Miles",
			"line1" : "2014 E 42ND ST",
			"line2" : "",
			"town" : "ODESSA",
			"city" : "TX",
			"postalCode" : "79762",
			"country" : "United States",
			"latitude" : "31.8881408",
			"longitude" : "-102.3529649",
			
				"openings":
		{
		
						"Sun":"12:00 PM - 6:00 PM",
						"Mon":"10:00 AM - 9:00 PM",
						"Tue":"10:00 AM - 9:00 PM",
						"Wed":"10:00 AM - 9:00 PM",
						"Thu":"10:00 AM - 9:00 PM",
						"Fri":"10:00 AM - 9:00 PM",
						"Sat":"10:00 AM - 9:00 PM"
		},

				"specialOpenings":
		{
		
		},

			"image" : ""
		},
		{
			"displayName" : "LAKEVIEW POINTE",
			"name" : "461",
			"centerType" : "STRIPMALL",
			"hideStore" : "false",
			"url" : "",
			"phone" : "4055331513",
			"formattedDistance" : "1,513.5 Miles",
			"line1" : "2120 N PERKINS RD",
			"line2" : "",
			"town" : "STILLWATER",
			"city" : "OK",
			"postalCode" : "74075",
			"country" : "United States",
			"latitude" : "36.1430917",
			"longitude" : "-97.0538476",
			
				"openings":
		{
		
						"Sun":"12:00 PM - 6:00 PM",
						"Mon":"10:00 AM - 9:00 PM",
						"Tue":"10:00 AM - 9:00 PM",
						"Wed":"10:00 AM - 9:00 PM",
						"Thu":"10:00 AM - 9:00 PM",
						"Fri":"10:00 AM - 9:00 PM",
						"Sat":"10:00 AM - 9:00 PM"
		},

				"specialOpenings":
		{
		
		},

			"image" : ""
		},
		{
			"displayName" : "THE MARKET AT CZECH HALL",
			"name" : "736",
			"centerType" : "STRIPMALL",
			"hideStore" : "false",
			"url" : "",
			"phone" : "4053242291",
			"formattedDistance" : "1,513.7 Miles",
			"line1" : "12444 NW 10TH ST BLDG B",
			"line2" : "",
			"town" : "OKLAHOMA CITY",
			"city" : "OK",
			"postalCode" : "73099",
			"country" : "United States",
			"latitude" : "35.47635",
			"longitude" : "-97.7480362",
			
				"openings":
		{
		
						"Sun":"11:00 AM - 6:00 PM",
						"Mon":"10:00 AM - 9:00 PM",
						"Tue":"10:00 AM - 9:00 PM",
						"Wed":"10:00 AM - 9:00 PM",
						"Thu":"10:00 AM - 9:00 PM",
						"Fri":"10:00 AM - 9:00 PM",
						"Sat":"10:00 AM - 9:00 PM"
		},

				"specialOpenings":
		{
		
		},

			"image" : ""
		},
		{
			"displayName" : "OKLAHOMA CITY OUTLETS",
			"name" : "541",
			"centerType" : "STRIPMALL",
			"hideStore" : "false",
			"url" : "",
			"phone" : "4057890351",
			"formattedDistance" : "1,518.5 Miles",
			"line1" : "7642 W. RENO AVE. SPC D-540",
			"line2" : "",
			"town" : "OKLAHOMA CITY",
			"city" : "OK",
			"postalCode" : "73127",
			"country" : "United States",
			"latitude" : "35.4625421",
			"longitude" : "-97.6477248",
			
				"openings":
		{
		
						"Sun":"1:00 PM - 6:00 PM",
						"Mon":"10:00 AM - 9:00 PM",
						"Tue":"10:00 AM - 9:00 PM",
						"Wed":"10:00 AM - 9:00 PM",
						"Thu":"10:00 AM - 9:00 PM",
						"Fri":"10:00 AM - 9:00 PM",
						"Sat":"10:00 AM - 9:00 PM"
		},

				"specialOpenings":
		{
		
		},

			"image" : ""
		}
	]}

