
	{"total":500,"data":[
	
		{
			"displayName" : "EAST STONE COMMONS",
			"name" : "225",
			"centerType" : "STRIPMALL",
			"hideStore" : "false",
			"url" : "",
			"phone" : "4232466495",
			"formattedDistance" : "2,153.1 Miles",
			"line1" : "2003 N EASTMAN RD STE 100",
			"line2" : "",
			"town" : "KINGSPORT",
			"city" : "TN",
			"postalCode" : "37660",
			"country" : "United States",
			"latitude" : "36.5440873",
			"longitude" : "-82.5167974",
			
				"openings":
		{
		
						"Sun":"12:00 PM - 6:00 PM",
						"Mon":"10:00 AM - 9:00 PM",
						"Tue":"10:00 AM - 9:00 PM",
						"Wed":"10:00 AM - 9:00 PM",
						"Thu":"10:00 AM - 9:00 PM",
						"Fri":"10:00 AM - 9:00 PM",
						"Sat":"10:00 AM - 9:00 PM"
		},

				"specialOpenings":
		{
		
		},

			"image" : ""
		},
		{
			"displayName" : "KINGSPORT PAVILLION",
			"name" : "786",
			"centerType" : "STRIPMALL",
			"hideStore" : "false",
			"url" : "",
			"phone" : "4232470024",
			"formattedDistance" : "2,153.9 Miles",
			"line1" : "2626 EAST STONE DR",
			"line2" : "",
			"town" : "KINGSPORT",
			"city" : "TN",
			"postalCode" : "37660",
			"country" : "United States",
			"latitude" : "36.5513851",
			"longitude" : "-82.4932057",
			
				"openings":
		{
		
						"Sun":"12:00 PM - 6:00 PM",
						"Mon":"10:00 AM - 9:00 PM",
						"Tue":"10:00 AM - 9:00 PM",
						"Wed":"10:00 AM - 9:00 PM",
						"Thu":"10:00 AM - 9:00 PM",
						"Fri":"10:00 AM - 9:00 PM",
						"Sat":"10:00 AM - 9:00 PM"
		},

				"specialOpenings":
		{
		
		},

			"image" : ""
		},
		{
			"displayName" : "GREENEVILLE COMMONS",
			"name" : "770",
			"centerType" : "STRIPMALL",
			"hideStore" : "false",
			"url" : "",
			"phone" : "4236360010",
			"formattedDistance" : "2,154.4 Miles",
			"line1" : "1365 TUSCULUM BLVD",
			"line2" : "",
			"town" : "GREENEVILLE",
			"city" : "TN",
			"postalCode" : "37745",
			"country" : "United States",
			"latitude" : "36.1742823",
			"longitude" : "-82.7955639",
			
				"openings":
		{
		
						"Sun":"12:00 PM - 6:00 PM",
						"Mon":"10:00 AM - 9:00 PM",
						"Tue":"10:00 AM - 9:00 PM",
						"Wed":"10:00 AM - 9:00 PM",
						"Thu":"10:00 AM - 9:00 PM",
						"Fri":"10:00 AM - 9:00 PM",
						"Sat":"10:00 AM - 9:00 PM"
		},

				"specialOpenings":
		{
		
						"3/10/21":"10:00 AM - 8:00 PM",
						"3/8/21":"10:00 AM - 8:00 PM",
						"3/9/21":"10:00 AM - 8:00 PM",
						"3/12/21":"10:00 AM - 8:00 PM",
						"3/11/21":"10:00 AM - 8:00 PM",
						"3/16/21":"10:00 AM - 8:00 PM",
						"3/15/21":"10:00 AM - 8:00 PM",
						"3/17/21":"10:00 AM - 8:00 PM",
						"3/13/21":"10:00 AM - 8:00 PM",
						"3/19/21":"10:00 AM - 8:00 PM",
						"3/22/21":"10:00 AM - 8:00 PM",
						"3/20/21":"10:00 AM - 8:00 PM",
						"3/25/21":"10:00 AM - 8:00 PM",
						"3/26/21":"10:00 AM - 8:00 PM",
						"3/23/21":"10:00 AM - 8:00 PM",
						"3/24/21":"10:00 AM - 8:00 PM",
						"3/27/21":"10:00 AM - 8:00 PM",
						"3/18/21":"10:00 AM - 8:00 PM"
		},

			"image" : ""
		},
		{
			"displayName" : "CANTON MARKET PLACE",
			"name" : "3062",
			"centerType" : "STRIPMALL",
			"hideStore" : "true",
			"url" : "",
			"phone" : "7703450933",
			"formattedDistance" : "2,155.6 Miles",
			"line1" : "1810 CUMMING HWY STE 830",
			"line2" : "",
			"town" : "CANTON",
			"city" : "GA",
			"postalCode" : "30115",
			"country" : "United States",
			"latitude" : "34.2350672",
			"longitude" : "-84.4605002",
			
				"openings":
		{
		
						"Sun":"11:00 AM - 7:00 PM",
						"Mon":"10:00 AM - 9:00 PM",
						"Tue":"10:00 AM - 9:00 PM",
						"Wed":"10:00 AM - 9:00 PM",
						"Thu":"10:00 AM - 9:00 PM",
						"Fri":"10:00 AM - 9:00 PM",
						"Sat":"10:00 AM - 9:00 PM"
		},

				"specialOpenings":
		{
		
		},

			"image" : ""
		},
		{
			"displayName" : "CANTON MARKETPLACE",
			"name" : "531",
			"centerType" : "STRIPMALL",
			"hideStore" : "false",
			"url" : "",
			"phone" : "7704797310",
			"formattedDistance" : "2,155.7 Miles",
			"line1" : "1810 CUMMING HWY SUITE 650",
			"line2" : "",
			"town" : "CANTON",
			"city" : "GA",
			"postalCode" : "30115",
			"country" : "United States",
			"latitude" : "34.235648",
			"longitude" : "-84.4573924",
			
				"openings":
		{
		
						"Sun":"12:00 PM - 6:00 PM",
						"Mon":"10:00 AM - 9:00 PM",
						"Tue":"10:00 AM - 9:00 PM",
						"Wed":"10:00 AM - 9:00 PM",
						"Thu":"10:00 AM - 9:00 PM",
						"Fri":"10:00 AM - 9:00 PM",
						"Sat":"10:00 AM - 9:00 PM"
		},

				"specialOpenings":
		{
		
		},

			"image" : ""
		}
	]}

