
	{"total":500,"data":[
	
		{
			"displayName" : "LYNNCROFT SC",
			"name" : "1001",
			"centerType" : "STRIPMALL",
			"hideStore" : "false",
			"url" : "",
			"phone" : "2522150968",
			"formattedDistance" : "2,428.6 Miles",
			"line1" : "3160 EVANS ST",
			"line2" : "",
			"town" : "GREENVILLE",
			"city" : "NC",
			"postalCode" : "27834",
			"country" : "United States",
			"latitude" : "35.5726605",
			"longitude" : "-77.3839403",
			
				"openings":
		{
		
						"Sun":"12:00 PM - 6:00 PM",
						"Mon":"10:00 AM - 9:00 PM",
						"Tue":"10:00 AM - 9:00 PM",
						"Wed":"10:00 AM - 9:00 PM",
						"Thu":"10:00 AM - 9:00 PM",
						"Fri":"10:00 AM - 9:00 PM",
						"Sat":"10:00 AM - 9:00 PM"
		},

				"specialOpenings":
		{
		
		},

			"image" : ""
		},
		{
			"displayName" : "GREENVILLE MALL",
			"name" : "239",
			"centerType" : "MALL",
			"hideStore" : "false",
			"url" : "",
			"phone" : "2527563484",
			"formattedDistance" : "2,428.9 Miles",
			"line1" : "714 GREENVILLE BLVD SE STE NW2",
			"line2" : "",
			"town" : "GREENVILLE",
			"city" : "NC",
			"postalCode" : "27858",
			"country" : "United States",
			"latitude" : "35.5856181",
			"longitude" : "-77.3669",
			
				"openings":
		{
		
						"Sun":"12:00 PM - 6:00 PM",
						"Mon":"10:00 AM - 9:00 PM",
						"Tue":"10:00 AM - 9:00 PM",
						"Wed":"10:00 AM - 9:00 PM",
						"Thu":"10:00 AM - 9:00 PM",
						"Fri":"10:00 AM - 9:00 PM",
						"Sat":"10:00 AM - 9:00 PM"
		},

				"specialOpenings":
		{
		
						"3/8/21":"11:00 AM - 7:00 PM",
						"3/13/21":"11:00 AM - 8:00 PM",
						"3/12/21":"11:00 AM - 8:00 PM",
						"3/19/21":"11:00 AM - 8:00 PM",
						"3/10/21":"11:00 AM - 7:00 PM",
						"3/20/21":"11:00 AM - 8:00 PM",
						"3/16/21":"11:00 AM - 7:00 PM",
						"3/18/21":"11:00 AM - 7:00 PM",
						"3/11/21":"11:00 AM - 7:00 PM",
						"3/9/21":"11:00 AM - 7:00 PM",
						"3/15/21":"11:00 AM - 7:00 PM",
						"3/22/21":"11:00 AM - 7:00 PM",
						"3/24/21":"11:00 AM - 7:00 PM",
						"3/25/21":"11:00 AM - 7:00 PM",
						"3/23/21":"11:00 AM - 7:00 PM",
						"3/17/21":"11:00 AM - 7:00 PM",
						"3/26/21":"11:00 AM - 8:00 PM",
						"3/30/21":"11:00 AM - 7:00 PM",
						"3/27/21":"11:00 AM - 8:00 PM",
						"3/31/21":"11:00 AM - 7:00 PM",
						"4/1/21":"11:00 AM - 7:00 PM",
						"3/29/21":"11:00 AM - 7:00 PM"
		},

			"image" : ""
		},
		{
			"displayName" : "SAYEBROOK TOWN CENTER",
			"name" : "690",
			"centerType" : "STRIPMALL",
			"hideStore" : "false",
			"url" : "",
			"phone" : "8432932910",
			"formattedDistance" : "2,431.3 Miles",
			"line1" : "130 SAYEBROOK PKWY UNIT3 BLDG6",
			"line2" : "",
			"town" : "MYRTLE BEACH",
			"city" : "SC",
			"postalCode" : "29588",
			"country" : "United States",
			"latitude" : "33.6542261",
			"longitude" : "-78.9822609",
			
				"openings":
		{
		
						"Sun":"12:00 PM - 6:00 PM",
						"Mon":"10:00 AM - 9:00 PM",
						"Tue":"10:00 AM - 9:00 PM",
						"Wed":"10:00 AM - 9:00 PM",
						"Thu":"10:00 AM - 9:00 PM",
						"Fri":"10:00 AM - 9:00 PM",
						"Sat":"10:00 AM - 9:00 PM"
		},

				"specialOpenings":
		{
		
		},

			"image" : ""
		},
		{
			"displayName" : "OCEAN CITY FACTORY OUTLETS",
			"name" : "179",
			"centerType" : "OUTLET",
			"hideStore" : "false",
			"url" : "",
			"phone" : "4102137883",
			"formattedDistance" : "2,431.9 Miles",
			"line1" : "12741 OCEAN GATEWAY STE 970",
			"line2" : "",
			"town" : "OCEAN CITY",
			"city" : "MD",
			"postalCode" : "21842",
			"country" : "United States",
			"latitude" : "38.3380394",
			"longitude" : "-75.1066211",
			
				"openings":
		{
		
						"Sun":"11:00 AM - 6:00 PM",
						"Mon":"11:00 AM - 6:00 PM",
						"Tue":"11:00 AM - 6:00 PM",
						"Wed":"11:00 AM - 6:00 PM",
						"Thu":"11:00 AM - 6:00 PM",
						"Fri":"11:00 AM - 6:00 PM",
						"Sat":"11:00 AM - 6:00 PM"
		},

				"specialOpenings":
		{
		
		},

			"image" : ""
		},
		{
			"displayName" : "COASTAL GRAND MALL",
			"name" : "458",
			"centerType" : "MALL",
			"hideStore" : "false",
			"url" : "",
			"phone" : "8438393254",
			"formattedDistance" : "2,432 Miles",
			"line1" : "2000 COASTAL GRAND CIR SPACE 320",
			"line2" : "",
			"town" : "MYRTLE BEACH",
			"city" : "SC",
			"postalCode" : "29577",
			"country" : "United States",
			"latitude" : "33.7036339",
			"longitude" : "-78.9234761",
			
				"openings":
		{
		
						"Sun":"12:00 PM - 6:00 PM",
						"Mon":"10:00 AM - 9:00 PM",
						"Tue":"10:00 AM - 9:00 PM",
						"Wed":"10:00 AM - 9:00 PM",
						"Thu":"10:00 AM - 9:00 PM",
						"Fri":"10:00 AM - 9:00 PM",
						"Sat":"10:00 AM - 9:00 PM"
		},

				"specialOpenings":
		{
		
		},

			"image" : ""
		}
	]}

