
	{"total":500,"data":[
	
		{
			"displayName" : "VALLEY MALL",
			"name" : "286",
			"centerType" : "MALL",
			"hideStore" : "false",
			"url" : "",
			"phone" : "5404322338",
			"formattedDistance" : "2,254.8 Miles",
			"line1" : "1925 E MARKET ST STE 420",
			"line2" : "",
			"town" : "HARRISONBURG",
			"city" : "VA",
			"postalCode" : "22801",
			"country" : "United States",
			"latitude" : "38.4282344",
			"longitude" : "-78.8435176",
			
				"openings":
		{
		
						"Sun":"12:30 PM - 5:30 PM",
						"Mon":"11:00 AM - 7:00 PM",
						"Tue":"11:00 AM - 7:00 PM",
						"Wed":"11:00 AM - 7:00 PM",
						"Thu":"11:00 AM - 7:00 PM",
						"Fri":"11:00 AM - 8:00 PM",
						"Sat":"11:00 AM - 8:00 PM"
		},

				"specialOpenings":
		{
		
		},

			"image" : ""
		},
		{
			"displayName" : "MILLEDGEVILLE MALL",
			"name" : "528",
			"centerType" : "MALL",
			"hideStore" : "false",
			"url" : "",
			"phone" : "4784520741",
			"formattedDistance" : "2,257.9 Miles",
			"line1" : "2400 N COLUMBIA ST STE A5",
			"line2" : "",
			"town" : "MILLEDGEVILLE",
			"city" : "GA",
			"postalCode" : "31061",
			"country" : "United States",
			"latitude" : "33.1073769",
			"longitude" : "-83.2578349",
			
				"openings":
		{
		
						"Sun":"1:00 PM - 6:00 PM",
						"Mon":"10:00 AM - 9:00 PM",
						"Tue":"10:00 AM - 9:00 PM",
						"Wed":"10:00 AM - 9:00 PM",
						"Thu":"10:00 AM - 9:00 PM",
						"Fri":"10:00 AM - 9:00 PM",
						"Sat":"10:00 AM - 9:00 PM"
		},

				"specialOpenings":
		{
		
						"4/4/21":"12:00 PM - 12:00 PM"
		},

			"image" : ""
		},
		{
			"displayName" : "NEWTOWNE PLAZA",
			"name" : "814",
			"centerType" : "STRIPMALL",
			"hideStore" : "false",
			"url" : "",
			"phone" : "7048839667",
			"formattedDistance" : "2,258.8 Miles",
			"line1" : "1537 EAST BROAD STREET",
			"line2" : "",
			"town" : "STATESVILLE",
			"city" : "NC",
			"postalCode" : "28625",
			"country" : "United States",
			"latitude" : "35.792327",
			"longitude" : "-80.8596598",
			
				"openings":
		{
		
						"Sun":"12:00 PM - 6:00 PM",
						"Mon":"10:00 AM - 8:00 PM",
						"Tue":"10:00 AM - 8:00 PM",
						"Wed":"10:00 AM - 8:00 PM",
						"Thu":"10:00 AM - 8:00 PM",
						"Fri":"10:00 AM - 8:00 PM",
						"Sat":"10:00 AM - 8:00 PM"
		},

				"specialOpenings":
		{
		
		},

			"image" : ""
		},
		{
			"displayName" : "WARNER ROBINS PLACE",
			"name" : "761",
			"centerType" : "STRIPMALL",
			"hideStore" : "false",
			"url" : "",
			"phone" : "4789536359",
			"formattedDistance" : "2,259.9 Miles",
			"line1" : "2724 WATSON BLVD",
			"line2" : "",
			"town" : "WARNER ROBINS",
			"city" : "GA",
			"postalCode" : "31093",
			"country" : "United States",
			"latitude" : "32.6204711",
			"longitude" : "-83.6747085",
			
				"openings":
		{
		
						"Sun":"11:00 AM - 7:00 PM",
						"Mon":"10:00 AM - 9:00 PM",
						"Tue":"10:00 AM - 9:00 PM",
						"Wed":"10:00 AM - 9:00 PM",
						"Thu":"10:00 AM - 9:00 PM",
						"Fri":"10:00 AM - 9:00 PM",
						"Sat":"10:00 AM - 9:00 PM"
		},

				"specialOpenings":
		{
		
		},

			"image" : ""
		},
		{
			"displayName" : "EMERALD PLACE SC",
			"name" : "152",
			"centerType" : "STRIPMALL",
			"hideStore" : "false",
			"url" : "",
			"phone" : "8642235228",
			"formattedDistance" : "2,260.8 Miles",
			"line1" : "227 HOSPITALITY BLVD",
			"line2" : "",
			"town" : "GREENWOOD",
			"city" : "SC",
			"postalCode" : "29649",
			"country" : "United States",
			"latitude" : "34.2037915",
			"longitude" : "-82.1914583",
			
				"openings":
		{
		
						"Sun":"12:00 PM - 6:00 PM",
						"Mon":"10:00 AM - 9:00 PM",
						"Tue":"10:00 AM - 9:00 PM",
						"Wed":"10:00 AM - 9:00 PM",
						"Thu":"10:00 AM - 9:00 PM",
						"Fri":"10:00 AM - 9:00 PM",
						"Sat":"10:00 AM - 9:00 PM"
		},

				"specialOpenings":
		{
		
		},

			"image" : ""
		}
	]}

