
	{"total":500,"data":[
	
		{
			"displayName" : "ALAMO QUARRY MARKET",
			"name" : "277",
			"centerType" : "STRIPMALL",
			"hideStore" : "false",
			"url" : "",
			"phone" : "2108225890",
			"formattedDistance" : "1,783.8 Miles",
			"line1" : "255 E. BASSE RD STE 104",
			"line2" : "",
			"town" : "SAN ANTONIO",
			"city" : "TX",
			"postalCode" : "78209",
			"country" : "United States",
			"latitude" : "29.4957603",
			"longitude" : "-98.4808168",
			
				"openings":
		{
		
						"Sun":"12:00 PM - 6:00 PM",
						"Mon":"10:00 AM - 9:00 PM",
						"Tue":"10:00 AM - 9:00 PM",
						"Wed":"10:00 AM - 9:00 PM",
						"Thu":"10:00 AM - 9:00 PM",
						"Fri":"10:00 AM - 9:00 PM",
						"Sat":"10:00 AM - 9:00 PM"
		},

				"specialOpenings":
		{
		
		},

			"image" : ""
		},
		{
			"displayName" : "TANGER OUTLETS",
			"name" : "465",
			"centerType" : "OUTLET",
			"hideStore" : "false",
			"url" : "",
			"phone" : "5123921642",
			"formattedDistance" : "1,786.4 Miles",
			"line1" : "4015 IH 35 S STE 326",
			"line2" : "",
			"town" : "SAN MARCOS",
			"city" : "TX",
			"postalCode" : "78666",
			"country" : "United States",
			"latitude" : "29.7365652",
			"longitude" : "-98.0712426",
			
				"openings":
		{
		
						"Sun":"10:00 AM - 7:00 PM",
						"Mon":"9:00 AM - 9:00 PM",
						"Tue":"9:00 AM - 9:00 PM",
						"Wed":"9:00 AM - 9:00 PM",
						"Thu":"9:00 AM - 9:00 PM",
						"Fri":"9:00 AM - 9:00 PM",
						"Sat":"9:00 AM - 9:00 PM"
		},

				"specialOpenings":
		{
		
						"3/10/21":"10:00 AM - 7:00 PM",
						"3/7/21":"11:00 AM - 7:00 PM",
						"3/12/21":"10:00 AM - 7:00 PM",
						"3/13/21":"10:00 AM - 7:00 PM",
						"3/9/21":"10:00 AM - 7:00 PM",
						"3/14/21":"11:00 AM - 7:00 PM",
						"3/8/21":"10:00 AM - 7:00 PM",
						"3/18/21":"10:00 AM - 7:00 PM",
						"3/17/21":"10:00 AM - 7:00 PM",
						"3/19/21":"10:00 AM - 7:00 PM",
						"3/15/21":"10:00 AM - 7:00 PM",
						"3/11/21":"10:00 AM - 7:00 PM",
						"3/20/21":"10:00 AM - 7:00 PM",
						"3/22/21":"10:00 AM - 7:00 PM",
						"3/23/21":"10:00 AM - 7:00 PM",
						"3/24/21":"10:00 AM - 7:00 PM",
						"3/26/21":"10:00 AM - 7:00 PM",
						"3/27/21":"10:00 AM - 7:00 PM",
						"3/28/21":"11:00 AM - 7:00 PM",
						"3/21/21":"11:00 AM - 7:00 PM",
						"3/30/21":"10:00 AM - 7:00 PM",
						"3/31/21":"10:00 AM - 7:00 PM",
						"3/16/21":"10:00 AM - 7:00 PM",
						"3/25/21":"10:00 AM - 7:00 PM",
						"3/29/21":"10:00 AM - 7:00 PM"
		},

			"image" : ""
		},
		{
			"displayName" : "TOWN CENTER AT CREEKSIDE",
			"name" : "683",
			"centerType" : "STRIPMALL",
			"hideStore" : "false",
			"url" : "",
			"phone" : "8306292396",
			"formattedDistance" : "1,786.9 Miles",
			"line1" : "243 CREEKSIDE CROSSING",
			"line2" : "",
			"town" : "NEW BRAUNFELS",
			"city" : "TX",
			"postalCode" : "78130",
			"country" : "United States",
			"latitude" : "29.7254571",
			"longitude" : "-98.0741625",
			
				"openings":
		{
		
						"Sun":"12:00 PM - 6:00 PM",
						"Mon":"10:00 AM - 9:00 PM",
						"Tue":"10:00 AM - 9:00 PM",
						"Wed":"10:00 AM - 9:00 PM",
						"Thu":"10:00 AM - 9:00 PM",
						"Fri":"10:00 AM - 9:00 PM",
						"Sat":"10:00 AM - 9:00 PM"
		},

				"specialOpenings":
		{
		
		},

			"image" : ""
		},
		{
			"displayName" : "WOOD LAKE CROSSING",
			"name" : "544",
			"centerType" : "STRIPMALL",
			"hideStore" : "false",
			"url" : "",
			"phone" : "2103101758",
			"formattedDistance" : "1,789.4 Miles",
			"line1" : "6230 WOOD GLEN DR STE #101",
			"line2" : "",
			"town" : "SAN ANTONIO",
			"city" : "TX",
			"postalCode" : "78244",
			"country" : "United States",
			"latitude" : "29.48327279",
			"longitude" : "-98.34963919",
			
				"openings":
		{
		
						"Sun":"12:00 PM - 6:00 PM",
						"Mon":"10:00 AM - 9:00 PM",
						"Tue":"10:00 AM - 9:00 PM",
						"Wed":"10:00 AM - 9:00 PM",
						"Thu":"10:00 AM - 9:00 PM",
						"Fri":"10:00 AM - 9:00 PM",
						"Sat":"10:00 AM - 9:00 PM"
		},

				"specialOpenings":
		{
		
		},

			"image" : ""
		},
		{
			"displayName" : "BURLESON CROSSING",
			"name" : "640",
			"centerType" : "STRIPMALL",
			"hideStore" : "false",
			"url" : "",
			"phone" : "5123212192",
			"formattedDistance" : "1,794.1 Miles",
			"line1" : "773 HWY 71 WEST SUITE B",
			"line2" : "",
			"town" : "BASTROP",
			"city" : "TX",
			"postalCode" : "78602",
			"country" : "United States",
			"latitude" : "30.1129471",
			"longitude" : "-97.3551585",
			
				"openings":
		{
		
						"Sun":"12:00 PM - 6:00 PM",
						"Mon":"10:00 AM - 9:00 PM",
						"Tue":"10:00 AM - 9:00 PM",
						"Wed":"10:00 AM - 9:00 PM",
						"Thu":"10:00 AM - 9:00 PM",
						"Fri":"10:00 AM - 9:00 PM",
						"Sat":"10:00 AM - 9:00 PM"
		},

				"specialOpenings":
		{
		
		},

			"image" : ""
		}
	]}

