
	{"total":500,"data":[
	
		{
			"displayName" : "TANGER OUTLET CENTER",
			"name" : "706",
			"centerType" : "OUTLET",
			"hideStore" : "false",
			"url" : "",
			"phone" : "7409653238",
			"formattedDistance" : "2,002.7 Miles",
			"line1" : "400 S WILSON RD STE 870",
			"line2" : "",
			"town" : "SUNBURY",
			"city" : "OH",
			"postalCode" : "43074",
			"country" : "United States",
			"latitude" : "40.2599745",
			"longitude" : "-82.924321",
			
				"openings":
		{
		
						"Sun":"11:00 AM - 6:00 PM",
						"Mon":"11:00 AM - 7:00 PM",
						"Tue":"11:00 AM - 7:00 PM",
						"Wed":"11:00 AM - 7:00 PM",
						"Thu":"11:00 AM - 7:00 PM",
						"Fri":"11:00 AM - 7:00 PM",
						"Sat":"11:00 AM - 7:00 PM"
		},

				"specialOpenings":
		{
		
		},

			"image" : ""
		},
		{
			"displayName" : "STIRLING LAFAYETTE S/C",
			"name" : "521",
			"centerType" : "STRIPMALL",
			"hideStore" : "false",
			"url" : "",
			"phone" : "3372344673",
			"formattedDistance" : "2,003.5 Miles",
			"line1" : "3001 LOUISIANA AVE STE 100",
			"line2" : "",
			"town" : "LAFAYETTE",
			"city" : "LA",
			"postalCode" : "70501",
			"country" : "United States",
			"latitude" : "30.2633559",
			"longitude" : "-91.9959526",
			
				"openings":
		{
		
						"Sun":"12:00 PM - 6:00 PM",
						"Mon":"10:00 AM - 9:00 PM",
						"Tue":"10:00 AM - 9:00 PM",
						"Wed":"10:00 AM - 9:00 PM",
						"Thu":"10:00 AM - 9:00 PM",
						"Fri":"10:00 AM - 9:00 PM",
						"Sat":"10:00 AM - 9:00 PM"
		},

				"specialOpenings":
		{
		
		},

			"image" : ""
		},
		{
			"displayName" : "FAYETTE MALL",
			"name" : "190",
			"centerType" : "MALL",
			"hideStore" : "false",
			"url" : "",
			"phone" : "8592735570",
			"formattedDistance" : "2,006.1 Miles",
			"line1" : "3401 NICHOLASVILLE RD. SP. D-406",
			"line2" : "",
			"town" : "LEXINGTON",
			"city" : "KY",
			"postalCode" : "40503",
			"country" : "United States",
			"latitude" : "37.9884639",
			"longitude" : "-84.5283695",
			
				"openings":
		{
		
						"Sun":"12:00 PM - 6:00 PM",
						"Mon":"10:00 AM - 9:00 PM",
						"Tue":"10:00 AM - 9:00 PM",
						"Wed":"10:00 AM - 9:00 PM",
						"Thu":"10:00 AM - 9:00 PM",
						"Fri":"10:00 AM - 9:00 PM",
						"Sat":"10:00 AM - 9:00 PM"
		},

				"specialOpenings":
		{
		
						"3/22/21":"11:00 AM - 7:00 PM",
						"3/19/21":"11:00 AM - 8:00 PM",
						"3/25/21":"11:00 AM - 7:00 PM",
						"3/26/21":"11:00 AM - 8:00 PM",
						"3/27/21":"11:00 AM - 8:00 PM",
						"3/23/21":"11:00 AM - 7:00 PM",
						"3/20/21":"11:00 AM - 8:00 PM",
						"3/24/21":"11:00 AM - 7:00 PM",
						"3/13/21":"11:00 AM - 8:00 PM",
						"3/10/21":"11:00 AM - 7:00 PM",
						"3/16/21":"11:00 AM - 8:00 PM",
						"3/9/21":"11:00 AM - 7:00 PM",
						"3/8/21":"11:00 AM - 7:00 PM",
						"3/11/21":"11:00 AM - 7:00 PM",
						"3/18/21":"11:00 AM - 8:00 PM",
						"3/17/21":"11:00 AM - 8:00 PM",
						"3/15/21":"11:00 AM - 8:00 PM",
						"3/12/21":"11:00 AM - 8:00 PM"
		},

			"image" : ""
		},
		{
			"displayName" : "RIVER MARKETPLACE",
			"name" : "448",
			"centerType" : "STRIPMALL",
			"hideStore" : "false",
			"url" : "",
			"phone" : "3379819989",
			"formattedDistance" : "2,006.3 Miles",
			"line1" : "4401 AMBASSADOR CAFFERY B8 STE 300",
			"line2" : "",
			"town" : "LAFAYETTE",
			"city" : "LA",
			"postalCode" : "70508",
			"country" : "United States",
			"latitude" : "30.1599025",
			"longitude" : "-92.0486348",
			
				"openings":
		{
		
						"Sun":"12:00 PM - 6:00 PM",
						"Mon":"10:00 AM - 9:00 PM",
						"Tue":"10:00 AM - 9:00 PM",
						"Wed":"10:00 AM - 9:00 PM",
						"Thu":"10:00 AM - 9:00 PM",
						"Fri":"10:00 AM - 9:00 PM",
						"Sat":"10:00 AM - 9:00 PM"
		},

				"specialOpenings":
		{
		
		},

			"image" : ""
		},
		{
			"displayName" : "AMBASSADOR TOWN CENTER",
			"name" : "3114",
			"centerType" : "STRIPMALL",
			"hideStore" : "true",
			"url" : "",
			"phone" : "3374060165",
			"formattedDistance" : "2,006.6 Miles",
			"line1" : "111 MEADOW FARM RD STE 130",
			"line2" : "",
			"town" : "LAFAYETTE",
			"city" : "LA",
			"postalCode" : "70508",
			"country" : "United States",
			"latitude" : "30.1579577",
			"longitude" : "-92.0448479",
			
				"openings":
		{
		
						"Sun":"11:00 AM - 7:00 PM",
						"Mon":"10:00 AM - 9:00 PM",
						"Tue":"10:00 AM - 9:00 PM",
						"Wed":"10:00 AM - 9:00 PM",
						"Thu":"10:00 AM - 9:00 PM",
						"Fri":"10:00 AM - 9:00 PM",
						"Sat":"10:00 AM - 9:00 PM"
		},

				"specialOpenings":
		{
		
		},

			"image" : ""
		}
	]}

