
	{"total":500,"data":[
	
		{
			"displayName" : "FREMAUX TOWN CENTER",
			"name" : "633",
			"centerType" : "STRIPMALL",
			"hideStore" : "false",
			"url" : "",
			"phone" : "9856430080",
			"formattedDistance" : "2,098.2 Miles",
			"line1" : "350 TOWN CENTER PARKWAY",
			"line2" : "",
			"town" : "SLIDELL",
			"city" : "LA",
			"postalCode" : "70458",
			"country" : "United States",
			"latitude" : "30.2641407",
			"longitude" : "-89.7593549",
			
				"openings":
		{
		
						"Sun":"11:00 AM - 7:00 PM",
						"Mon":"9:30 AM - 9:00 PM",
						"Tue":"9:30 AM - 9:00 PM",
						"Wed":"9:30 AM - 9:00 PM",
						"Thu":"9:30 AM - 9:00 PM",
						"Fri":"9:30 AM - 9:00 PM",
						"Sat":"9:30 AM - 9:00 PM"
		},

				"specialOpenings":
		{
		
		},

			"image" : ""
		},
		{
			"displayName" : "TURKEY CREEK PAVILION",
			"name" : "3086",
			"centerType" : "STRIPMALL",
			"hideStore" : "true",
			"url" : "",
			"phone" : "8657771004",
			"formattedDistance" : "2,101.9 Miles",
			"line1" : "11449 PARKSIDE DRIVE",
			"line2" : "",
			"town" : "KNOXVILLE",
			"city" : "TN",
			"postalCode" : "37934",
			"country" : "United States",
			"latitude" : "35.9004946",
			"longitude" : "-84.1645187",
			
				"openings":
		{
		
						"Sun":"12:00 PM - 6:00 PM",
						"Mon":"10:00 AM - 9:00 PM",
						"Tue":"10:00 AM - 9:00 PM",
						"Wed":"10:00 AM - 9:00 PM",
						"Thu":"10:00 AM - 9:00 PM",
						"Fri":"10:00 AM - 9:00 PM",
						"Sat":"10:00 AM - 9:00 PM"
		},

				"specialOpenings":
		{
		
		},

			"image" : ""
		},
		{
			"displayName" : "TURKEY CREEK PAVILLION",
			"name" : "73",
			"centerType" : "STRIPMALL",
			"hideStore" : "false",
			"url" : "",
			"phone" : "8656711414",
			"formattedDistance" : "2,102.5 Miles",
			"line1" : "10984 PARKSIDE DR",
			"line2" : "",
			"town" : "KNOXVILLE",
			"city" : "TN",
			"postalCode" : "37934",
			"country" : "United States",
			"latitude" : "35.9022579",
			"longitude" : "-84.1489961",
			
				"openings":
		{
		
						"Sun":"11:00 AM - 6:00 PM",
						"Mon":"10:00 AM - 9:00 PM",
						"Tue":"10:00 AM - 9:00 PM",
						"Wed":"10:00 AM - 9:00 PM",
						"Thu":"10:00 AM - 9:00 PM",
						"Fri":"10:00 AM - 9:00 PM",
						"Sat":"10:00 AM - 9:00 PM"
		},

				"specialOpenings":
		{
		
						"3/7/21":"12:00 PM - 6:00 PM",
						"3/21/21":"12:00 PM - 6:00 PM",
						"4/4/21":"12:00 PM - 12:00 PM",
						"3/14/21":"12:00 PM - 6:00 PM",
						"3/28/21":"12:00 PM - 6:00 PM"
		},

			"image" : ""
		},
		{
			"displayName" : "WEST TOWN MALL",
			"name" : "30",
			"centerType" : "MALL",
			"hideStore" : "false",
			"url" : "",
			"phone" : "8655394713",
			"formattedDistance" : "2,106.7 Miles",
			"line1" : "7600 KINGSTON PIKE STE 1182",
			"line2" : "",
			"town" : "KNOXVILLE",
			"city" : "TN",
			"postalCode" : "37919",
			"country" : "United States",
			"latitude" : "35.9248969",
			"longitude" : "-84.0383436",
			
				"openings":
		{
		
						"Sun":"12:00 PM - 6:00 PM",
						"Mon":"11:00 AM - 7:00 PM",
						"Tue":"11:00 AM - 7:00 PM",
						"Wed":"11:00 AM - 7:00 PM",
						"Thu":"11:00 AM - 7:00 PM",
						"Fri":"10:00 AM - 8:00 PM",
						"Sat":"10:00 AM - 8:00 PM"
		},

				"specialOpenings":
		{
		
		},

			"image" : ""
		},
		{
			"displayName" : "DEANE HILL SC",
			"name" : "3016",
			"centerType" : "STRIPMALL",
			"hideStore" : "true",
			"url" : "",
			"phone" : "8657699996",
			"formattedDistance" : "2,107.1 Miles",
			"line1" : "264 MORRELL ROAD",
			"line2" : "",
			"town" : "KNOXVILLE",
			"city" : "TN",
			"postalCode" : "37919",
			"country" : "United States",
			"latitude" : "35.9241449",
			"longitude" : "-84.0312558",
			
				"openings":
		{
		
						"Sun":"12:00 PM - 7:00 PM",
						"Mon":"10:00 AM - 9:00 PM",
						"Tue":"10:00 AM - 9:00 PM",
						"Wed":"10:00 AM - 9:00 PM",
						"Thu":"10:00 AM - 9:00 PM",
						"Fri":"10:00 AM - 9:00 PM",
						"Sat":"10:00 AM - 9:00 PM"
		},

				"specialOpenings":
		{
		
		},

			"image" : ""
		}
	]}

