
	{"total":500,"data":[
	
		{
			"displayName" : "SUGARLOAF MILLS",
			"name" : "3024",
			"centerType" : "OUTLET",
			"hideStore" : "true",
			"url" : "",
			"phone" : "6788475797",
			"formattedDistance" : "2,183.6 Miles",
			"line1" : "5900 SUGARLOAF PKWY STE 569",
			"line2" : "",
			"town" : "LAWRENCEVILLE",
			"city" : "GA",
			"postalCode" : "30043",
			"country" : "United States",
			"latitude" : "33.9811233",
			"longitude" : "-84.079501",
			
				"openings":
		{
		
						"Sun":"12:00 AM - 6:00 PM",
						"Mon":"10:00 AM - 9:00 PM",
						"Tue":"10:00 AM - 9:00 PM",
						"Wed":"10:00 AM - 9:00 PM",
						"Thu":"10:00 AM - 9:00 PM",
						"Fri":"10:00 AM - 9:00 PM",
						"Sat":"10:00 AM - 9:00 PM"
		},

				"specialOpenings":
		{
		
		},

			"image" : ""
		},
		{
			"displayName" : "MALL OF GEORGIA CROSSING",
			"name" : "682",
			"centerType" : "STRIPMALL",
			"hideStore" : "false",
			"url" : "",
			"phone" : "6784822009",
			"formattedDistance" : "2,184.4 Miles",
			"line1" : "3205 WOODWARD CROSSINGS BLVD",
			"line2" : "",
			"town" : "BUFORD",
			"city" : "GA",
			"postalCode" : "30519",
			"country" : "United States",
			"latitude" : "34.0705461",
			"longitude" : "-83.9812054",
			
				"openings":
		{
		
						"Sun":"11:00 AM - 7:00 PM",
						"Mon":"10:00 AM - 9:00 PM",
						"Tue":"10:00 AM - 9:00 PM",
						"Wed":"10:00 AM - 9:00 PM",
						"Thu":"10:00 AM - 9:00 PM",
						"Fri":"10:00 AM - 9:00 PM",
						"Sat":"10:00 AM - 9:00 PM"
		},

				"specialOpenings":
		{
		
		},

			"image" : ""
		},
		{
			"displayName" : "AVENUE AT PEACHTREE CITY",
			"name" : "416",
			"centerType" : "STRIPMALL",
			"hideStore" : "false",
			"url" : "",
			"phone" : "6783641157",
			"formattedDistance" : "2,185.1 Miles",
			"line1" : "200 CITY CIRCLE   STE 100",
			"line2" : "",
			"town" : "PEACHTREE CITY",
			"city" : "GA",
			"postalCode" : "30269",
			"country" : "United States",
			"latitude" : "33.3947642",
			"longitude" : "-84.5906231",
			
				"openings":
		{
		
						"Sun":"12:00 PM - 6:00 PM",
						"Mon":"10:00 AM - 9:00 PM",
						"Tue":"10:00 AM - 9:00 PM",
						"Wed":"10:00 AM - 9:00 PM",
						"Thu":"10:00 AM - 9:00 PM",
						"Fri":"10:00 AM - 9:00 PM",
						"Sat":"10:00 AM - 9:00 PM"
		},

				"specialOpenings":
		{
		
		},

			"image" : ""
		},
		{
			"displayName" : "FAYETTE PAVILION",
			"name" : "288",
			"centerType" : "STRIPMALL",
			"hideStore" : "false",
			"url" : "",
			"phone" : "7707168320",
			"formattedDistance" : "2,188.3 Miles",
			"line1" : "120 PAVILION PARKWAY",
			"line2" : "",
			"town" : "FAYETTEVILLE",
			"city" : "GA",
			"postalCode" : "30214",
			"country" : "United States",
			"latitude" : "33.4797444",
			"longitude" : "-84.4396367",
			
				"openings":
		{
		
						"Sun":"11:00 AM - 7:00 PM",
						"Mon":"10:00 AM - 9:00 PM",
						"Tue":"10:00 AM - 9:00 PM",
						"Wed":"10:00 AM - 9:00 PM",
						"Thu":"10:00 AM - 9:00 PM",
						"Fri":"10:00 AM - 9:00 PM",
						"Sat":"10:00 AM - 9:00 PM"
		},

				"specialOpenings":
		{
		
		},

			"image" : ""
		},
		{
			"displayName" : "SOUTHLAKE MALL",
			"name" : "205",
			"centerType" : "MALL",
			"hideStore" : "false",
			"url" : "",
			"phone" : "7709611211",
			"formattedDistance" : "2,188.3 Miles",
			"line1" : "1257 SOUTHLAKE MALL",
			"line2" : "",
			"town" : "MORROW",
			"city" : "GA",
			"postalCode" : "30260",
			"country" : "United States",
			"latitude" : "33.5757671",
			"longitude" : "-84.3499101",
			
				"openings":
		{
		
						"Sun":"11:00 AM - 6:00 PM",
						"Mon":"10:00 AM - 9:00 PM",
						"Tue":"10:00 AM - 9:00 PM",
						"Wed":"10:00 AM - 9:00 PM",
						"Thu":"10:00 AM - 9:00 PM",
						"Fri":"10:00 AM - 9:00 PM",
						"Sat":"10:00 AM - 9:00 PM"
		},

				"specialOpenings":
		{
		
		},

			"image" : ""
		}
	]}

