
	{"total":500,"data":[
	
		{
			"displayName" : "HITCHCOCK PLAZA",
			"name" : "513",
			"centerType" : "STRIPMALL",
			"hideStore" : "false",
			"url" : "",
			"phone" : "8036444041",
			"formattedDistance" : "2,310.7 Miles",
			"line1" : "423 FABIAN DR",
			"line2" : "",
			"town" : "AIKEN",
			"city" : "SC",
			"postalCode" : "29803",
			"country" : "United States",
			"latitude" : "33.5186259",
			"longitude" : "-81.7245537",
			
				"openings":
		{
		
						"Sun":"12:00 PM - 6:00 PM",
						"Mon":"10:00 AM - 9:00 PM",
						"Tue":"10:00 AM - 9:00 PM",
						"Wed":"10:00 AM - 9:00 PM",
						"Thu":"10:00 AM - 9:00 PM",
						"Fri":"10:00 AM - 9:00 PM",
						"Sat":"10:00 AM - 9:00 PM"
		},

				"specialOpenings":
		{
		
		},

			"image" : ""
		},
		{
			"displayName" : "VILLAGE MARKETPLACE",
			"name" : "775",
			"centerType" : "STRIPMALL",
			"hideStore" : "false",
			"url" : "",
			"phone" : "3366365413",
			"formattedDistance" : "2,312.2 Miles",
			"line1" : "1416 EAST DIXIE DRIVE",
			"line2" : "",
			"town" : "ASHEBORO",
			"city" : "NC",
			"postalCode" : "27203",
			"country" : "United States",
			"latitude" : "35.6986245",
			"longitude" : "-79.7861002",
			
				"openings":
		{
		
						"Sun":"11:00 AM - 6:00 PM",
						"Mon":"10:00 AM - 9:00 PM",
						"Tue":"10:00 AM - 9:00 PM",
						"Wed":"10:00 AM - 9:00 PM",
						"Thu":"10:00 AM - 9:00 PM",
						"Fri":"10:00 AM - 9:00 PM",
						"Sat":"10:00 AM - 9:00 PM"
		},

				"specialOpenings":
		{
		
						"3/7/21":"12:00 PM - 6:00 PM",
						"3/14/21":"12:00 PM - 6:00 PM",
						"3/21/21":"12:00 PM - 6:00 PM"
		},

			"image" : ""
		},
		{
			"displayName" : "COLUMBIANA CENTRE",
			"name" : "333",
			"centerType" : "MALL",
			"hideStore" : "false",
			"url" : "",
			"phone" : "8034071326",
			"formattedDistance" : "2,313.5 Miles",
			"line1" : "100 COLUMBIANA CIRCLE SP. 1376",
			"line2" : "",
			"town" : "COLUMBIA",
			"city" : "SC",
			"postalCode" : "29212",
			"country" : "United States",
			"latitude" : "34.0786359",
			"longitude" : "-81.1574391",
			
				"openings":
		{
		
						"Sun":"12:00 PM - 6:00 PM",
						"Mon":"11:00 AM - 7:00 PM",
						"Tue":"11:00 AM - 7:00 PM",
						"Wed":"11:00 AM - 7:00 PM",
						"Thu":"11:00 AM - 7:00 PM",
						"Fri":"11:00 AM - 8:00 PM",
						"Sat":"11:00 AM - 8:00 PM"
		},

				"specialOpenings":
		{
		
		},

			"image" : ""
		},
		{
			"displayName" : "LEXINGTON PLACE II",
			"name" : "319",
			"centerType" : "STRIPMALL",
			"hideStore" : "false",
			"url" : "",
			"phone" : "8033562699",
			"formattedDistance" : "2,313.9 Miles",
			"line1" : "5454 SUNSET BLVD.  SUITE I",
			"line2" : "",
			"town" : "LEXINGTON",
			"city" : "SC",
			"postalCode" : "29072",
			"country" : "United States",
			"latitude" : "34.0000713",
			"longitude" : "-81.2187494",
			
				"openings":
		{
		
						"Sun":"12:00 PM - 6:00 PM",
						"Mon":"10:00 AM - 9:00 PM",
						"Tue":"10:00 AM - 9:00 PM",
						"Wed":"10:00 AM - 9:00 PM",
						"Thu":"10:00 AM - 9:00 PM",
						"Fri":"10:00 AM - 9:00 PM",
						"Sat":"10:00 AM - 9:00 PM"
		},

				"specialOpenings":
		{
		
		},

			"image" : ""
		},
		{
			"displayName" : "SHOPPES AT BELMONT",
			"name" : "751",
			"centerType" : "STRIPMALL",
			"hideStore" : "false",
			"url" : "",
			"phone" : "7172918916",
			"formattedDistance" : "2,316.6 Miles",
			"line1" : "1575 FRUITVILLE PIKE STE 3",
			"line2" : "",
			"town" : "LANCASTER",
			"city" : "PA",
			"postalCode" : "17601",
			"country" : "United States",
			"latitude" : "40.0648574",
			"longitude" : "-76.3144962",
			
				"openings":
		{
		
						"Sun":"11:00 AM - 6:00 PM",
						"Mon":"10:00 AM - 9:00 PM",
						"Tue":"10:00 AM - 9:00 PM",
						"Wed":"10:00 AM - 9:00 PM",
						"Thu":"10:00 AM - 9:00 PM",
						"Fri":"10:00 AM - 9:00 PM",
						"Sat":"10:00 AM - 9:00 PM"
		},

				"specialOpenings":
		{
		
		},

			"image" : ""
		}
	]}

