
	{"total":500,"data":[
	
		{
			"displayName" : "SPRADLIN FARM SHOPPING CENTER",
			"name" : "119",
			"centerType" : "STRIPMALL",
			"hideStore" : "false",
			"url" : "",
			"phone" : "5403812092",
			"formattedDistance" : "2,227.1 Miles",
			"line1" : "170 CONSTON AVE",
			"line2" : "",
			"town" : "CHRISTIANSBURG",
			"city" : "VA",
			"postalCode" : "24073",
			"country" : "United States",
			"latitude" : "37.1586844",
			"longitude" : "-80.4247413",
			
				"openings":
		{
		
						"Sun":"12:00 PM - 6:00 PM",
						"Mon":"9:30 AM - 9:00 PM",
						"Tue":"9:30 AM - 9:00 PM",
						"Wed":"9:30 AM - 9:00 PM",
						"Thu":"9:30 AM - 9:00 PM",
						"Fri":"9:30 AM - 9:00 PM",
						"Sat":"9:30 AM - 9:00 PM"
		},

				"specialOpenings":
		{
		
		},

			"image" : ""
		},
		{
			"displayName" : "PIEDMONT MARKETPLACE",
			"name" : "601",
			"centerType" : "STRIPMALL",
			"hideStore" : "false",
			"url" : "",
			"phone" : "8644190347",
			"formattedDistance" : "2,227.6 Miles",
			"line1" : "1316 W WADE HAMPTON BLVD STE D",
			"line2" : "",
			"town" : "LYMAN",
			"city" : "SC",
			"postalCode" : "29365",
			"country" : "United States",
			"latitude" : "34.9411696",
			"longitude" : "-82.2613406",
			
				"openings":
		{
		
						"Sun":"12:00 PM - 7:00 PM",
						"Mon":"10:00 AM - 9:00 PM",
						"Tue":"10:00 AM - 9:00 PM",
						"Wed":"10:00 AM - 9:00 PM",
						"Thu":"10:00 AM - 9:00 PM",
						"Fri":"10:00 AM - 9:00 PM",
						"Sat":"10:00 AM - 9:00 PM"
		},

				"specialOpenings":
		{
		
		},

			"image" : ""
		},
		{
			"displayName" : "HAYWOOD MALL",
			"name" : "247",
			"centerType" : "MALL",
			"hideStore" : "false",
			"url" : "",
			"phone" : "8642347659",
			"formattedDistance" : "2,228.1 Miles",
			"line1" : "700 HAYWOOD ROAD SPACE 2119-A",
			"line2" : "",
			"town" : "GREENVILLE",
			"city" : "SC",
			"postalCode" : "29607",
			"country" : "United States",
			"latitude" : "34.8500433",
			"longitude" : "-82.3320059",
			
				"openings":
		{
		
						"Sun":"12:30 PM - 6:00 PM",
						"Mon":"10:00 AM - 9:00 PM",
						"Tue":"10:00 AM - 9:00 PM",
						"Wed":"10:00 AM - 9:00 PM",
						"Thu":"10:00 AM - 9:00 PM",
						"Fri":"10:00 AM - 9:00 PM",
						"Sat":"10:00 AM - 9:00 PM"
		},

				"specialOpenings":
		{
		
		},

			"image" : ""
		},
		{
			"displayName" : "DESTINY USA",
			"name" : "3100",
			"centerType" : "MALL",
			"hideStore" : "true",
			"url" : "",
			"phone" : "3154224480",
			"formattedDistance" : "2,230.5 Miles",
			"line1" : "306 HIAWATHA BLVD W BOX 9805",
			"line2" : "",
			"town" : "SYRACUSE",
			"city" : "NY",
			"postalCode" : "13204",
			"country" : "United States",
			"latitude" : "43.0692696",
			"longitude" : "-76.1712198",
			
				"openings":
		{
		
						"Sun":"11:00 AM - 6:00 PM",
						"Mon":"10:00 AM - 9:30 PM",
						"Tue":"10:00 AM - 9:30 PM",
						"Wed":"10:00 AM - 9:30 PM",
						"Thu":"10:00 AM - 9:30 PM",
						"Fri":"10:00 AM - 9:30 PM",
						"Sat":"10:00 AM - 9:30 PM"
		},

				"specialOpenings":
		{
		
						"3/9/21":"11:00 AM - 7:00 PM",
						"3/8/21":"11:00 AM - 7:00 PM",
						"3/13/21":"11:00 AM - 7:00 PM",
						"3/15/21":"11:00 AM - 7:00 PM",
						"3/10/21":"11:00 AM - 7:00 PM",
						"3/11/21":"11:00 AM - 7:00 PM",
						"3/17/21":"11:00 AM - 7:00 PM",
						"3/22/21":"11:00 AM - 7:00 PM",
						"3/20/21":"11:00 AM - 7:00 PM",
						"3/25/21":"11:00 AM - 7:00 PM",
						"3/12/21":"11:00 AM - 7:00 PM",
						"3/24/21":"11:00 AM - 7:00 PM",
						"3/26/21":"11:00 AM - 7:00 PM",
						"3/19/21":"11:00 AM - 7:00 PM",
						"3/18/21":"11:00 AM - 7:00 PM",
						"3/27/21":"11:00 AM - 7:00 PM",
						"3/23/21":"11:00 AM - 7:00 PM",
						"3/16/21":"11:00 AM - 7:00 PM"
		},

			"image" : ""
		},
		{
			"displayName" : "SHOPS AT GREENRIDGE",
			"name" : "3051",
			"centerType" : "STRIPMALL",
			"hideStore" : "true",
			"url" : "",
			"phone" : "8642880757",
			"formattedDistance" : "2,230.6 Miles",
			"line1" : "1125 WOOD RUFF RD STE 400",
			"line2" : "",
			"town" : "GREENVILLE",
			"city" : "SC",
			"postalCode" : "29607",
			"country" : "United States",
			"latitude" : "34.8296462",
			"longitude" : "-82.295538",
			
				"openings":
		{
		
						"Sun":"11:00 AM - 7:00 PM",
						"Mon":"10:00 AM - 9:00 PM",
						"Tue":"10:00 AM - 9:00 PM",
						"Wed":"10:00 AM - 9:00 PM",
						"Thu":"10:00 AM - 9:00 PM",
						"Fri":"10:00 AM - 9:00 PM",
						"Sat":"10:00 AM - 9:00 PM"
		},

				"specialOpenings":
		{
		
		},

			"image" : ""
		}
	]}

