
	{"total":500,"data":[
	
		{
			"displayName" : "VILLAGE AT ELIZABETH ST",
			"name" : "679",
			"centerType" : "STRIPMALL",
			"hideStore" : "false",
			"url" : "",
			"phone" : "2568406336",
			"formattedDistance" : "2,079.9 Miles",
			"line1" : "301 ELIZABETH ST STE 348",
			"line2" : "",
			"town" : "BOAZ",
			"city" : "AL",
			"postalCode" : "35957",
			"country" : "United States",
			"latitude" : "34.1965014",
			"longitude" : "-86.160372",
			
				"openings":
		{
		
						"Sun":"12:00 PM - 6:00 PM",
						"Mon":"10:00 AM - 8:00 PM",
						"Tue":"10:00 AM - 8:00 PM",
						"Wed":"10:00 AM - 8:00 PM",
						"Thu":"10:00 AM - 8:00 PM",
						"Fri":"10:00 AM - 8:00 PM",
						"Sat":"10:00 AM - 8:00 PM"
		},

				"specialOpenings":
		{
		
		},

			"image" : ""
		},
		{
			"displayName" : "PROMENADE AT TUTWILER FARMS",
			"name" : "381",
			"centerType" : "STRIPMALL",
			"hideStore" : "false",
			"url" : "",
			"phone" : "2056554243",
			"formattedDistance" : "2,083.4 Miles",
			"line1" : "1636 GASDEN HWY STE 100",
			"line2" : "",
			"town" : "BIRMINGHAM",
			"city" : "AL",
			"postalCode" : "35235",
			"country" : "United States",
			"latitude" : "33.6042521",
			"longitude" : "-86.6393245",
			
				"openings":
		{
		
						"Sun":"12:00 PM - 6:00 PM",
						"Mon":"10:00 AM - 9:00 PM",
						"Tue":"10:00 AM - 9:00 PM",
						"Wed":"10:00 AM - 9:00 PM",
						"Thu":"10:00 AM - 9:00 PM",
						"Fri":"10:00 AM - 9:00 PM",
						"Sat":"10:00 AM - 9:00 PM"
		},

				"specialOpenings":
		{
		
		},

			"image" : ""
		},
		{
			"displayName" : "RIVERCHASE GALLERIA",
			"name" : "265",
			"centerType" : "MALL",
			"hideStore" : "false",
			"url" : "",
			"phone" : "2059883499",
			"formattedDistance" : "2,085.5 Miles",
			"line1" : "2000 RIVERCHASE GALLERIA SP 299A",
			"line2" : "",
			"town" : "HOOVER",
			"city" : "AL",
			"postalCode" : "35244",
			"country" : "United States",
			"latitude" : "33.3790531",
			"longitude" : "-86.8087728",
			
				"openings":
		{
		
						"Sun":"12:00 PM - 6:00 PM",
						"Mon":"10:00 AM - 9:00 PM",
						"Tue":"10:00 AM - 9:00 PM",
						"Wed":"10:00 AM - 9:00 PM",
						"Thu":"10:00 AM - 9:00 PM",
						"Fri":"10:00 AM - 9:00 PM",
						"Sat":"10:00 AM - 9:00 PM"
		},

				"specialOpenings":
		{
		
						"3/7/21":"12:00 PM - 6:00 PM",
						"3/11/21":"11:00 AM - 7:00 PM",
						"3/17/21":"11:00 AM - 7:00 PM",
						"3/12/21":"11:00 AM - 7:00 PM",
						"3/16/21":"11:00 AM - 7:00 PM",
						"3/13/21":"11:00 AM - 7:00 PM",
						"3/18/21":"11:00 AM - 7:00 PM",
						"3/15/21":"11:00 AM - 7:00 PM",
						"3/9/21":"11:00 AM - 7:00 PM",
						"3/14/21":"12:00 PM - 6:00 PM",
						"3/21/21":"12:00 PM - 6:00 PM",
						"3/8/21":"11:00 AM - 7:00 PM",
						"3/20/21":"11:00 AM - 7:00 PM",
						"3/22/21":"11:00 AM - 7:00 PM",
						"3/23/21":"11:00 AM - 7:00 PM",
						"3/25/21":"11:00 AM - 7:00 PM",
						"3/24/21":"11:00 AM - 7:00 PM",
						"3/27/21":"11:00 AM - 7:00 PM",
						"3/10/21":"11:00 AM - 7:00 PM",
						"3/19/21":"11:00 AM - 7:00 PM",
						"3/28/21":"12:00 PM - 6:00 PM",
						"3/29/21":"10:00 AM - 9:00 PM",
						"3/26/21":"11:00 AM - 7:00 PM",
						"3/30/21":"10:00 AM - 9:00 PM",
						"3/31/21":"10:00 AM - 9:00 PM",
						"4/2/21":"11:00 AM - 7:00 PM",
						"4/3/21":"11:00 AM - 7:00 PM",
						"4/1/21":"11:00 AM - 7:00 PM"
		},

			"image" : ""
		},
		{
			"displayName" : "BROOK HIGHLAND PLAZA",
			"name" : "195",
			"centerType" : "STRIPMALL",
			"hideStore" : "false",
			"url" : "",
			"phone" : "2059805750",
			"formattedDistance" : "2,089.4 Miles",
			"line1" : "5287 HWY 280 SOUTH SUITE 231",
			"line2" : "",
			"town" : "BIRMINGHAM",
			"city" : "AL",
			"postalCode" : "35242",
			"country" : "United States",
			"latitude" : "33.422204",
			"longitude" : "-86.681755",
			
				"openings":
		{
		
						"Sun":"1:00 PM - 6:00 PM",
						"Mon":"10:00 AM - 9:00 PM",
						"Tue":"10:00 AM - 9:00 PM",
						"Wed":"10:00 AM - 9:00 PM",
						"Thu":"10:00 AM - 9:00 PM",
						"Fri":"10:00 AM - 9:00 PM",
						"Sat":"10:00 AM - 9:00 PM"
		},

				"specialOpenings":
		{
		
		},

			"image" : ""
		},
		{
			"displayName" : "HAMILTON PLACE",
			"name" : "155",
			"centerType" : "MALL",
			"hideStore" : "false",
			"url" : "",
			"phone" : "4238944359",
			"formattedDistance" : "2,090.9 Miles",
			"line1" : "2100 HAMILTON PLACE BLVD",
			"line2" : "",
			"town" : "CHATTANOOGA",
			"city" : "TN",
			"postalCode" : "37421",
			"country" : "United States",
			"latitude" : "35.0340089",
			"longitude" : "-85.1587186",
			
				"openings":
		{
		
						"Sun":"12:00 PM - 6:00 PM",
						"Mon":"10:00 AM - 9:00 PM",
						"Tue":"10:00 AM - 9:00 PM",
						"Wed":"10:00 AM - 9:00 PM",
						"Thu":"10:00 AM - 9:00 PM",
						"Fri":"10:00 AM - 9:00 PM",
						"Sat":"10:00 AM - 9:00 PM"
		},

				"specialOpenings":
		{
		
		},

			"image" : ""
		}
	]}

