
	{"total":500,"data":[
	
		{
			"displayName" : "PROMENADE AT CAROLINA RESERVE",
			"name" : "741",
			"centerType" : "STRIPMALL",
			"hideStore" : "false",
			"url" : "",
			"phone" : "8035488720",
			"formattedDistance" : "2,293.5 Miles",
			"line1" : "7796 CHARLOTTE HIGHWAY STE 104",
			"line2" : "",
			"town" : "INDIAN LAND",
			"city" : "SC",
			"postalCode" : "29707",
			"country" : "United States",
			"latitude" : "34.9399854",
			"longitude" : "-80.8351417",
			
				"openings":
		{
		
						"Sun":"12:00 PM - 6:00 PM",
						"Mon":"10:00 AM - 9:00 PM",
						"Tue":"10:00 AM - 9:00 PM",
						"Wed":"10:00 AM - 9:00 PM",
						"Thu":"10:00 AM - 9:00 PM",
						"Fri":"10:00 AM - 9:00 PM",
						"Sat":"10:00 AM - 9:00 PM"
		},

				"specialOpenings":
		{
		
		},

			"image" : ""
		},
		{
			"displayName" : "NORTHWEST CENTRE",
			"name" : "39",
			"centerType" : "STRIPMALL",
			"hideStore" : "false",
			"url" : "",
			"phone" : "3362825640",
			"formattedDistance" : "2,294.1 Miles",
			"line1" : "2809 BATTLEGROUND AVE",
			"line2" : "",
			"town" : "GREENSBORO",
			"city" : "NC",
			"postalCode" : "27408",
			"country" : "United States",
			"latitude" : "36.1106197",
			"longitude" : "-79.8316439",
			
				"openings":
		{
		
						"Sun":"12:00 PM - 6:00 PM",
						"Mon":"10:00 AM - 9:00 PM",
						"Tue":"10:00 AM - 9:00 PM",
						"Wed":"10:00 AM - 9:00 PM",
						"Thu":"10:00 AM - 9:00 PM",
						"Fri":"10:00 AM - 9:00 PM",
						"Sat":"10:00 AM - 9:00 PM"
		},

				"specialOpenings":
		{
		
		},

			"image" : ""
		},
		{
			"displayName" : "THE DANVILLE MALL",
			"name" : "184",
			"centerType" : "MALL",
			"hideStore" : "false",
			"url" : "",
			"phone" : "4347925025",
			"formattedDistance" : "2,294.8 Miles",
			"line1" : "325 PIEDMONT DRIVE STE 535",
			"line2" : "",
			"town" : "DANVILLE",
			"city" : "VA",
			"postalCode" : "24540",
			"country" : "United States",
			"latitude" : "36.5942591",
			"longitude" : "-79.4211567",
			
				"openings":
		{
		
						"Sun":"12:00 PM - 6:00 PM",
						"Mon":"10:00 AM - 9:00 PM",
						"Tue":"10:00 AM - 9:00 PM",
						"Wed":"10:00 AM - 9:00 PM",
						"Thu":"10:00 AM - 9:00 PM",
						"Fri":"10:00 AM - 9:00 PM",
						"Sat":"10:00 AM - 9:00 PM"
		},

				"specialOpenings":
		{
		
		},

			"image" : ""
		},
		{
			"displayName" : "FRIENDLY CENTER",
			"name" : "300",
			"centerType" : "STRIPMALL",
			"hideStore" : "false",
			"url" : "",
			"phone" : "3362180680",
			"formattedDistance" : "2,295.2 Miles",
			"line1" : "620 FRIENDLY CENTER ROAD",
			"line2" : "",
			"town" : "GREENSBORO",
			"city" : "NC",
			"postalCode" : "27408",
			"country" : "United States",
			"latitude" : "36.083961",
			"longitude" : "-79.8302214",
			
				"openings":
		{
		
						"Sun":"12:00 PM - 6:00 PM",
						"Mon":"10:00 AM - 9:00 PM",
						"Tue":"10:00 AM - 9:00 PM",
						"Wed":"10:00 AM - 9:00 PM",
						"Thu":"10:00 AM - 9:00 PM",
						"Fri":"10:00 AM - 9:00 PM",
						"Sat":"10:00 AM - 9:00 PM"
		},

				"specialOpenings":
		{
		
		},

			"image" : ""
		},
		{
			"displayName" : "AUGUSTA EXCHANGE",
			"name" : "315",
			"centerType" : "STRIPMALL",
			"hideStore" : "false",
			"url" : "",
			"phone" : "7067338486",
			"formattedDistance" : "2,295.4 Miles",
			"line1" : "213 ROBERT C. DANIEL JR. PKWY.",
			"line2" : "",
			"town" : "AUGUSTA",
			"city" : "GA",
			"postalCode" : "30909",
			"country" : "United States",
			"latitude" : "33.4922233",
			"longitude" : "-82.0808441",
			
				"openings":
		{
		
						"Sun":"11:00 AM - 7:00 PM",
						"Mon":"10:00 AM - 9:00 PM",
						"Tue":"10:00 AM - 9:00 PM",
						"Wed":"10:00 AM - 9:00 PM",
						"Thu":"10:00 AM - 9:00 PM",
						"Fri":"10:00 AM - 9:00 PM",
						"Sat":"10:00 AM - 9:00 PM"
		},

				"specialOpenings":
		{
		
		},

			"image" : ""
		}
	]}

